[{"name":"Wrike","id":613,"value_proposition":"Leading provider of SaaS-based project management and collaboration software.","group":"Current","date_aquired":"12/31/2018","date_exited":"","industry_vertical":"Horizontal","add_on_companies":false,"logo":"http://localhost/wp-content/uploads/2019/04/Screenshot-2019-03-25-at-12.50.21.png","hq_location":{"city":"San Jose","country":"United States","state":"CA","region":"North America","geo_point":{"address":"San Jose, CA, United States of America","lat":"37.2751","lng":"-121.8261"}},"other_locations":[]},{"name":"7Park Data","id":612,"value_proposition":"AI/ML powered platform providing data products and analytics solutions that revolutionize business decisions for financial institutions and enterprises.","group":"Current","date_aquired":"12/03/2018","date_exited":"","industry_vertical":"Horizontal","add_on_companies":false,"logo":"http://localhost/wp-content/uploads/2019/04/Screenshot-2019-03-25-at-12.50.21.png","hq_location":{"city":"New York","country":"United States","state":"NY","region":"North America","geo_point":{"address":"New York, NY, United States of America","lat":"40.7648","lng":"-73.9808"}},"other_locations":[]},{"name":"Radar","id":611,"value_proposition":"SaaS-based privacy incident response management platform.","group":"Current","date_aquired":"11/08/2018","date_exited":"","industry_vertical":"Security","add_on_companies":false,"logo":"http://localhost/wp-content/uploads/2019/04/Screenshot-2019-03-25-at-12.50.21.png","hq_location":{"city":"Portland","country":"United States","state":"OR","region":"North America","geo_point":{"address":"Portland, OR, United States of America","lat":"45.5202","lng":"-122.6742"}},"other_locations":[]},{"name":"Not published","id":126,"value_proposition":"not publishd  value prop","group":"Former","date_aquired":"05/10/2019","date_exited":"05/18/2019","industry_vertical":"Financial Services","add_on_companies":false,"logo":"http://localhost/wp-content/uploads/2019/04/Screenshot-2019-03-25-at-12.50.21.png","hq_location":{"city":"Aalborg","country":"Denmark","state":"","region":"Europe","geo_point":{"address":"Aalborg, Denmark","lat":"57.05","lng":"9.91667"}},"other_locations":[]},{"name":"PowerSchool","id":521,"value_proposition":"Student information management and reporting solutions for the K-12 education industry.","group":"Current","industry_vertical":"Education","logo":"http://localhost/wp-content/uploads/2019/05/PowerSchool.svg","date_aquired":"07/31/2015","add_on_companies":[{"name":"PeopleAdmin","acquisition_date":"08/01/2018"},{"name":"SunGard K-12","acquisition_date":"02/01/2017"},{"name":"Chalkable","acquisition_date":"10/14/2016"},{"name":"SRB Education Solutions","acquisition_date":"08/08/2016"},{"name":"Haiku Learning","acquisition_date":"06/03/2016"},{"name":"TIENET","acquisition_date":"05/10/2016"},{"name":"Interactive Achievement","acquisition_date":"02/01/2016"},{"name":"InfoSnap","acquisition_date":"11/05/2015"}],"date_exited":"","hq_location":{"city":"Folsom","country":"United States","state":"CA","region":"North America","geo_point":{"address":"Folsom, CA, United States of America","lat":"38.678","lng":"-121.1761"}},"other_locations":[{"city":"Burlington","country":"Canada","state":"","region":"North America","geo_point":{"address":"Burlington, Canada","lat":"43.3236","lng":"-79.8012"}},{"city":"Markham","country":"Canada","state":"","region":"North America","geo_point":{"address":"Markham, Canada","lat":"43.8539","lng":"-79.3243"}},{"city":"Tucson","country":"United States","state":"AZ","region":"North America","geo_point":{"address":"Tucson, AZ, United States of America","lat":"32.1561235","lng":"-111.0238898"}},{"city":"Mobile","country":"United States","state":"AL","region":"North America","geo_point":{"address":"Mobile, AL, United States of America","lat":"30.6488","lng":"-88.1946"}},{"city":"Chico","country":"United States","state":"CA","region":"North America","geo_point":{"address":"Chico, CA, United States of America","lat":"39.7285","lng":"-121.8375"}},{"city":"Rancho Cordova","country":"United States","state":"CA","region":"North America","geo_point":{"address":"Rancho Cordova, CA, United States of America","lat":"38.5891","lng":"-121.3027"}},{"city":"Shelton","country":"United States","state":"CT","region":"North America","geo_point":{"address":"Shelton, CT, United States of America","lat":"41.3165","lng":"-73.0932"}},{"city":"Bethesda","country":"United States","state":"MD","region":"North America","geo_point":{"address":"Bethesda, MD, United States of America","lat":"38.9848","lng":"-77.0946"}},{"city":"Ronkonkoma","country":"United States","state":"NY","region":"North America","geo_point":{"address":"Ronkonkoma, NY, United States of America","lat":"40.8154","lng":"-73.1123"}},{"city":"Bethlehem","country":"United States","state":"PA","region":"North America","geo_point":{"address":"Bethlehem, PA, United States of America","lat":"40.6179","lng":"-75.3787"}},{"city":"Austin","country":"United States","state":"TX","region":"North America","geo_point":{"address":"Austin, TX, United States of America","lat":"30.2711","lng":"-97.7437"}},{"city":"Roanoke","country":"United States","state":"VA","region":"North America","geo_point":{"address":"Roanoke, VA, United States of America","lat":"37.271","lng":"-79.9414"}},{"city":"Bengaluru","country":"India","state":"","region":"Asia Pacific","geo_point":{"address":"Bengaluru, India","lat":"12.96991","lng":"77.59796"}}]},{"name":"Ping Identity","id":520,"value_proposition":"Next generation identity and access management software for global enterprises.","group":"Current","industry_vertical":"Security","logo":"http://localhost/wp-content/uploads/2019/05/Ping-Identity.svg","date_aquired":"06/30/2016","add_on_companies":[{"name":"Elastic Beam","acquisition_date":"04/05/2018"},{"name":"UnboundID","acquisition_date":"08/03/2016"}],"date_exited":"","hq_location":{"city":"Denver","country":"United States","state":"CO","region":"North America","geo_point":{"address":"Denver, CO, United States of America","lat":"39.7348","lng":"-104.9653"}},"other_locations":[{"city":"Halifax","country":"Canada","state":"","region":"North America","geo_point":{"address":"Halifax, Canada","lat":"44.6484","lng":"-63.575"}},{"city":"Vancouver","country":"Canada","state":"","region":"North America","geo_point":{"address":"Vancouver, Canada","lat":"49.2609","lng":"-123.1139"}},{"city":"San Francisco","country":"United States","state":"CA","region":"North America","geo_point":{"address":"San Francisco, CA, United States of America","lat":"37.7648","lng":"-122.463"}},{"city":"Burlington","country":"United States","state":"MA","region":"North America","geo_point":{"address":"Burlington, MA, United States of America","lat":"44.4724","lng":"-73.2115"}},{"city":"Austin","country":"United States","state":"TX","region":"North America","geo_point":{"address":"Austin, TX, United States of America","lat":"30.2711","lng":"-97.7437"}},{"city":"Paris","country":"France","state":"","region":"Europe","geo_point":{"address":"Paris, France","lat":"48.859489","lng":"2.320582"}},{"city":"London","country":"United Kingdom","state":"","region":"Europe","geo_point":{"address":"London, United Kingdom","lat":"51.50722","lng":"-0.1275"}}]},{"name":"PayLease","id":519,"value_proposition":"Online payment solutions for property management companies and tenants.","group":"Current","industry_vertical":"Real Estate","logo":"http://localhost/wp-content/uploads/2019/05/PayLease.svg","date_aquired":"07/18/2017","add_on_companies":false,"date_exited":"","hq_location":{"city":"San Diego","country":"United States","state":"CA","region":"North America","geo_point":{"address":"San Diego, CA, United States of America","lat":"32.7174","lng":"-117.1628"}},"other_locations":[{"city":"Chicago","country":"United States","state":"IL","region":"North America","geo_point":{"address":"Chicago, IL, United States of America","lat":"41.8756","lng":"-87.6244"}}]},{"name":"P2 Energy Solutions","id":518,"value_proposition":"Business operations software and geospatial data solutions for the upstream oil and gas industry.","group":"Former","date_exited":"05/27/2019","industry_vertical":"Energy","logo":"http://localhost/wp-content/uploads/2019/05/P2-Energy-Solutions.svg","date_aquired":"06/16/2008","add_on_companies":[{"name":"ISS","acquisition_date":"08/05/2013"},{"name":"Beyond Compliance","acquisition_date":"12/07/2011"},{"name":"Wellpoint","acquisition_date":"05/02/2011"},{"name":"Explorer","acquisition_date":"03/31/2011"},{"name":"Wellcore","acquisition_date":"07/15/2008"}],"hq_location":{"city":"Denver","country":"United States","state":"CO","region":"North America","geo_point":{"address":"Denver, CO, United States of America","lat":"39.7348","lng":"-104.9653"}},"other_locations":[]},{"name":"Omnitracs","id":517,"value_proposition":"Fleet management software application, information services, and hardware platforms for the transportation industry.","group":"Current","industry_vertical":"Transportation","logo":"http://localhost/wp-content/uploads/2019/05/Omnitracs.svg","date_aquired":"10/29/2013","add_on_companies":[{"name":"Shaw Tracking","acquisition_date":"06/01/2017"},{"name":"Infogation","acquisition_date":"02/25/2015"},{"name":"XRS Corporation","acquisition_date":"11/03/2014"},{"name":"Roadnet Technologies","acquisition_date":"12/19/2013"}],"date_exited":"","hq_location":{"city":"Dallas","country":"United States","state":"TX","region":"North America","geo_point":{"address":"Dallas, TX, United States of America","lat":"32.7763","lng":"-96.7969"}},"other_locations":[{"city":"Oakville","country":"Canada","state":"","region":"North America","geo_point":{"address":"Oakville, Canada","lat":"43.4474","lng":"-79.6665"}},{"city":"Windsor","country":"Canada","state":"","region":"North America","geo_point":{"address":"Windsor, Canada","lat":"42.3033","lng":"-83.0285"}},{"city":"Mexico City","country":"Mexico","state":"","region":"North America","geo_point":{"address":"Mexico City, Mexico","lat":"19.41944","lng":"-99.14556"}},{"city":"San Diego","country":"United States","state":"CA","region":"North America","geo_point":{"address":"San Diego, CA, United States of America","lat":"32.7174","lng":"-117.1628"}},{"city":"Atlanta","country":"United States","state":"GA","region":"North America","geo_point":{"address":"Atlanta, GA, United States of America","lat":"33.7491","lng":"-84.3902"}},{"city":"Las Vegas","country":"United States","state":"NV","region":"North America","geo_point":{"address":"Las Vegas, NV, United States of America","lat":"36.1663","lng":"-115.1492"}},{"city":"Towson","country":"United States","state":"MD","region":"North America","geo_point":{"address":"Towson, MD, United States of America","lat":"39.4019","lng":"-76.6024"}},{"city":"Minnetonka","country":"United States","state":"MN","region":"North America","geo_point":{"address":"Minnetonka, MN, United States of America","lat":"44.9127","lng":"-93.4991"}},{"city":"Clemmons","country":"United States","state":"NC","region":"North America","geo_point":{"address":"Clemmons, NC, United States of America","lat":"36.0215","lng":"-80.382"}},{"city":"Herndon","country":"United States","state":"VA","region":"North America","geo_point":{"address":"Herndon, VA, United States of America","lat":"38.9695","lng":"-77.3859"}},{"city":"Dallas","country":"United States","state":"TX","region":"North America","geo_point":{"address":"Dallas, TX, United States of America","lat":"32.7763","lng":"-96.7969"}},{"city":"Buffalo","country":"United States","state":"NY","region":"North America","geo_point":{"address":"Buffalo, NY, United States of America","lat":"42.9333","lng":"-78.877"}},{"city":"São Paulo","country":"Brazil","state":"","region":"South America","geo_point":{"address":"São Paulo, Brazil","lat":"-23.5507","lng":"-46.6334"}},{"city":"Shanghai","country":"China","state":"","region":"Asia Pacific","geo_point":{"address":"Shanghai, China","lat":"31.16667","lng":"121.46667"}}]},{"name":"Numerator","id":516,"value_proposition":"Competitive data insights for advertising and retailers.","group":"Current","industry_vertical":"Sales & Marketing","logo":"http://localhost/wp-content/uploads/2019/05/Numerator.svg","date_aquired":"06/05/2017","add_on_companies":[{"name":"InfoScout","acquisition_date":"07/19/2017"}],"date_exited":"","hq_location":{"city":"Chicago","country":"United States","state":"IL","region":"North America","geo_point":{"address":"Chicago, IL, United States of America","lat":"41.8756","lng":"-87.6244"}},"other_locations":[{"city":"Mississauga","country":"Canada","state":"","region":"North America","geo_point":{"address":"Mississauga, Canada","lat":"43.5893","lng":"-79.6442"}},{"city":"Ottawa","country":"Canada","state":"","region":"North America","geo_point":{"address":"Ottawa, Canada","lat":"45.421","lng":"-75.69"}},{"city":"San Rafael","country":"United States","state":"CA","region":"North America","geo_point":{"address":"San Rafael, CA, United States of America","lat":"37.9735","lng":"-122.5311"}},{"city":"San Francisco","country":"United States","state":"CA","region":"North America","geo_point":{"address":"San Francisco, CA, United States of America","lat":"37.7648","lng":"-122.463"}},{"city":"Saratoga Springs","country":"United States","state":"NY","region":"North America","geo_point":{"address":"Saratoga Springs, NY, United States of America","lat":"43.0822","lng":"-73.7854"}},{"city":"New York","country":"United States","state":"NY","region":"North America","geo_point":{"address":"New York, NY, United States of America","lat":"40.7648","lng":"-73.9808"}},{"city":"Solon","country":"United States","state":"OH","region":"North America","geo_point":{"address":"Solon, OH, United States of America","lat":"41.3898","lng":"-81.4412"}},{"city":"Montego Bay","country":"Jamaica","state":"","region":"Central America","geo_point":{"address":"Montego Bay, Jamaica","lat":"18.487178","lng":"-77.896954"}},{"city":"Vadodara","country":"India","state":"","region":"Asia Pacific","geo_point":{"address":"Vadodara, India","lat":"22.3","lng":"73.2"}},{"city":"Sydney","country":"Australia","state":"","region":"Asia Pacific","geo_point":{"address":"Sydney, Australia","lat":"-33.868","lng":"151.21"}}]},{"name":"NEWSCYCLE Solutions","id":515,"value_proposition":"Technology solutions for the global news media industry, including content management, digital advertising, circulation, and audience relationship management.","group":"Current","industry_vertical":"Sports, Media & Entertainment","logo":"http://localhost/wp-content/uploads/2019/05/NEWSCYCLE-Solutions.svg","date_aquired":"07/10/2013","add_on_companies":[{"name":"Infomaker","acquisition_date":"07/13/2018"},{"name":"Media Services Group","acquisition_date":"02/01/2018"},{"name":"Acquire Media","acquisition_date":"12/29/2017"},{"name":"DoApp","acquisition_date":"06/10/2016"},{"name":"MediaSpan","acquisition_date":"05/07/2014"},{"name":"AdBase Business from Atex","acquisition_date":"11/01/2013"},{"name":"Saxotech","acquisition_date":"07/10/2013"},{"name":"Marketing G2","acquisition_date":"12/03/2018"}],"date_exited":"","hq_location":{"city":"St. Paul","country":"United States","state":"MN","region":"North America","geo_point":{"address":"St. Paul, MN, United States of America","lat":"44.9398076","lng":"-93.1760933"}},"other_locations":[{"city":"Laval","country":"Canada","state":"","region":"North America","geo_point":{"address":"Laval, Canada","lat":"45.6299","lng":"-73.7168"}},{"city":"Melbourne","country":"United States","state":"FL","region":"North America","geo_point":{"address":"Melbourne, FL, United States of America","lat":"28.0836","lng":"-80.6081"}},{"city":"Tampa","country":"United States","state":"FL","region":"North America","geo_point":{"address":"Tampa, FL, United States of America","lat":"27.9478","lng":"-82.4584"}},{"city":"Laurel","country":"United States","state":"MD","region":"North America","geo_point":{"address":"Laurel, MD, United States of America","lat":"39.0993","lng":"-76.8483"}},{"city":"Burlington","country":"United States","state":"MA","region":"North America","geo_point":{"address":"Burlington, MA, United States of America","lat":"44.4724","lng":"-73.2115"}},{"city":"Rochester","country":"United States","state":"MN","region":"North America","geo_point":{"address":"Rochester, MN, United States of America","lat":"43.1573","lng":"-77.6152"}},{"city":"St. Paul","country":"United States","state":"MN","region":"North America","geo_point":{"address":"St. Paul, MN, United States of America","lat":"44.9398076","lng":"-93.1760933"}},{"city":"Bloomington","country":"United States","state":"MN","region":"North America","geo_point":{"address":"Bloomington, MN, United States of America","lat":"44.8322","lng":"-93.3205"}},{"city":"Roseland","country":"United States","state":"NJ","region":"North America","geo_point":{"address":"Roseland, NJ, United States of America","lat":"40.8207","lng":"-74.2938"}},{"city":"Lancaster","country":"United States","state":"UT","region":"North America","geo_point":{"address":"Lancaster, UT, United States of America","lat":"40.0381","lng":"-76.3057"}},{"city":"Lindon","country":"United States","state":"UT","region":"North America","geo_point":{"address":"Lindon, UT, United States of America","lat":"40.3433","lng":"-111.7208"}},{"city":"Salt Lake City","country":"United States","state":"UT","region":"North America","geo_point":{"address":"Salt Lake City, UT, United States of America","lat":"40.767","lng":"-111.8904"}},{"city":"Ann Arbor","country":"United States","state":"MI","region":"North America","geo_point":{"address":"Ann Arbor, MI, United States of America","lat":"42.2682","lng":"-83.7312"}},{"city":"Aalborg","country":"Denmark","state":"","region":"Europe","geo_point":{"address":"Aalborg, Denmark","lat":"57.05","lng":"9.91667"}},{"city":"Darmstadt","country":"Germany","state":"","region":"Europe","geo_point":{"address":"Darmstadt, Germany","lat":"49.86667","lng":"8.65"}},{"city":"Helsingborg","country":"Sweden","state":"","region":"Europe","geo_point":{"address":"Helsingborg, Sweden","lat":"56.05","lng":"12.7"}},{"city":"Basildon","country":"United Kingdom","state":"","region":"Europe","geo_point":{"address":"Basildon, United Kingdom","lat":"51.5761","lng":"0.4886"}},{"city":"London","country":"United Kingdom","state":"","region":"Europe","geo_point":{"address":"London, United Kingdom","lat":"51.50722","lng":"-0.1275"}},{"city":"Kuala Lumpur","country":"Malaysia","state":"","region":"Asia Pacific","geo_point":{"address":"Kuala Lumpur, Malaysia","lat":"3.130236","lng":"101.687618"}}]},{"name":"NAVEX Global","id":514,"value_proposition":"Global SaaS-based Ethics and Compliance software and content provider to companies of all sizes in all verticals.","group":"Current","date_exited":"05/27/2019","industry_vertical":"Legal","logo":"http://localhost/wp-content/uploads/2019/05/NAVEX-Global.svg","date_aquired":"11/20/2014","add_on_companies":[{"name":"The Network","acquisition_date":"08/31/2015"}],"hq_location":{"city":"Lake Oswego","country":"United States","state":"OR","region":"North America","geo_point":{"address":"Lake Oswego, OR, United States of America","lat":"45.4207","lng":"-122.6706"}},"other_locations":[{"city":"Norcross","country":"United States","state":"GA","region":"North America","geo_point":{"address":"Norcross, GA, United States of America","lat":"33.9412","lng":"-84.2135"}},{"city":"Rexburg","country":"United States","state":"ID","region":"North America","geo_point":{"address":"Rexburg, ID, United States of America","lat":"43.8235","lng":"-111.787"}},{"city":"Tigard","country":"United States","state":"OR","region":"North America","geo_point":{"address":"Tigard, OR, United States of America","lat":"45.4307","lng":"-122.7719"}},{"city":"Charlotte","country":"United States","state":"NC","region":"North America","geo_point":{"address":"Charlotte, NC, United States of America","lat":"35.2271","lng":"-80.8431"}},{"city":"Brentford","country":"United Kingdom","state":"","region":"Europe","geo_point":{"address":"Brentford, United Kingdom","lat":"51.4861","lng":"-0.3101"}},{"city":"Richmond","country":"United Kingdom","state":"","region":"Europe","geo_point":{"address":"Richmond, United Kingdom","lat":"51.4713296","lng":"-0.3876112"}}]},{"name":"Mitratech","id":513,"value_proposition":"Corporate legal automation and GRC solutions for large, global organizations.","group":"Former","date_exited":"05/27/2019","industry_vertical":"Legal","logo":"http://localhost/wp-content/uploads/2019/05/Mitratech.svg","date_aquired":"10/31/2011","add_on_companies":[{"name":"CaseTrack","acquisition_date":"08/21/2015"},{"name":"Bridgeway","acquisition_date":"07/02/2015"},{"name":"Lawtrac","acquisition_date":"12/23/2013"}],"hq_location":{"city":"Austin","country":"United States","state":"TX","region":"North America","geo_point":{"address":"Austin, TX, United States of America","lat":"30.2711","lng":"-97.7437"}},"other_locations":[]},{"name":"MicroEdge","id":512,"value_proposition":"IT solutions for the grantmaking community, including private foundation, corporate philanthropy, employee giving programs, community foundations, and various other giving organizations.","group":"Former","date_exited":"05/27/2019","industry_vertical":"Nonprofit","logo":"http://localhost/wp-content/uploads/2019/05/MicroEdge.svg","date_aquired":"10/01/2009","add_on_companies":[{"name":"AngelPoints","acquisition_date":"11/30/2011"}],"hq_location":{"city":"New York","country":"United States","state":"NY","region":"North America","geo_point":{"address":"New York, NY, United States of America","lat":"40.7648","lng":"-73.9808"}},"other_locations":[]},{"name":"Marketo","id":511,"value_proposition":"Provides the leading marketing software and engagement platform designed to help marketers develop long-term relationships with their customers – from acquisition to advocacy.","group":"Current","industry_vertical":"Sales & Marketing","logo":"http://localhost/wp-content/uploads/2019/05/Marketo.svg","date_aquired":"08/16/2016","add_on_companies":[{"name":"Bizible","acquisition_date":"04/27/2018"},{"name":"ToutApp","acquisition_date":"04/18/2017"}],"date_exited":"","hq_location":{"city":"San Mateo","country":"United States","state":"CA","region":"North America","geo_point":{"address":"San Mateo, CA, United States of America","lat":"37.5446","lng":"-122.3091"}},"other_locations":[{"city":"Atlanta","country":"United States","state":"GA","region":"North America","geo_point":{"address":"Atlanta, GA, United States of America","lat":"33.7491","lng":"-84.3902"}},{"city":"Denver","country":"United States","state":"CO","region":"North America","geo_point":{"address":"Denver, CO, United States of America","lat":"39.7348","lng":"-104.9653"}},{"city":"Portland","country":"United States","state":"OR","region":"North America","geo_point":{"address":"Portland, OR, United States of America","lat":"45.5202","lng":"-122.6742"}},{"city":"New York","country":"United States","state":"NY","region":"North America","geo_point":{"address":"New York, NY, United States of America","lat":"40.7648","lng":"-73.9808"}},{"city":"Neuilly-sur-Seine","country":"France","state":"","region":"Europe","geo_point":{"address":"Neuilly-sur-Seine, France","lat":"47.23972","lng":"3.50278"}},{"city":"Dublin","country":"Ireland","state":"","region":"Europe","geo_point":{"address":"Dublin, Ireland","lat":"53.34929607","lng":"-6.26036167"}},{"city":"London","country":"United Kingdom","state":"","region":"Europe","geo_point":{"address":"London, United Kingdom","lat":"51.50722","lng":"-0.1275"}},{"city":"Tel Aviv","country":"Israel","state":"","region":"Middle East","geo_point":{"address":"Tel Aviv, Israel","lat":"32.083148","lng":"34.780915"}},{"city":"Melbourne","country":"Australia","state":"","region":"Asia Pacific","geo_point":{"address":"Melbourne, Australia","lat":"-37.8142","lng":"144.9632"}},{"city":"Sydney","country":"Australia","state":"","region":"Asia Pacific","geo_point":{"address":"Sydney, Australia","lat":"-33.868","lng":"151.21"}},{"city":"Osaka","country":"Japan","state":"","region":"Asia Pacific","geo_point":{"address":"Osaka, Japan","lat":"34.69361","lng":"135.50194"}},{"city":"Tokyo","country":"Japan","state":"","region":"Asia Pacific","geo_point":{"address":"Tokyo, Japan","lat":"35.68","lng":"139.77"}}]},{"name":"Main Street Hub","id":510,"value_proposition":"Marketing platform for local businesses integrating social media, customer reviews, mobile, and email marketing.","group":"Former","date_exited":"05/27/2019","industry_vertical":"Sales & Marketing","logo":"http://localhost/wp-content/uploads/2019/05/Main-Street-Hub.svg","date_aquired":"07/10/2015","add_on_companies":false,"hq_location":{"city":"Austin","country":"United States","state":"TX","region":"North America","geo_point":{"address":"Austin, TX, United States of America","lat":"30.2711","lng":"-97.7437"}},"other_locations":[]},{"name":"MRI Software","id":509,"value_proposition":"Real estate property management solutions primarily focused on the commercial real estate market.","group":"Former","date_exited":"05/27/2019","industry_vertical":"Real Estate","logo":"http://localhost/wp-content/uploads/2019/05/MRI-Software.svg","date_aquired":"01/15/2010","add_on_companies":[{"name":"Cougar Software","acquisition_date":"02/03/2015"},{"name":"VaultWare","acquisition_date":"12/21/2011"},{"name":"BostonPost","acquisition_date":"09/30/2011"},{"name":"Workspeed","acquisition_date":"06/24/2011"}],"hq_location":{"city":"Solon","country":"United States","state":"OH","region":"North America","geo_point":{"address":"Solon, OH, United States of America","lat":"41.3898","lng":"-81.4412"}},"other_locations":[{"city":"Atlanta","country":"United States","state":"GA","region":"North America","geo_point":{"address":"Atlanta, GA, United States of America","lat":"33.7491","lng":"-84.3902"}},{"city":"Dallas","country":"United States","state":"TX","region":"North America","geo_point":{"address":"Dallas, TX, United States of America","lat":"32.7763","lng":"-96.7969"}}]},{"name":"Lone Wolf Real Estate Technologies","id":508,"value_proposition":"Deal management, accounting software, lead acquisition, and website design solutions for the real estate brokerage industry in North America.","group":"Current","industry_vertical":"Real Estate","logo":"http://localhost/wp-content/uploads/2019/05/Lone-Wolf-Real-Estate-Technologies.svg","date_aquired":"04/10/2015","add_on_companies":[{"name":"Instanet","acquisition_date":"10/18/2017"}],"date_exited":"","hq_location":{"city":"Cambridge","country":"Canada","state":"","region":"North America","geo_point":{"address":"Cambridge, Canada","lat":"43.3843","lng":"-80.3098"}},"other_locations":[{"city":"Langley","country":"Canada","state":"","region":"North America","geo_point":{"address":"Langley, Canada","lat":"49.083","lng":"-122.5859"}},{"city":"London","country":"Canada","state":"","region":"North America","geo_point":{"address":"London, Canada","lat":"42.9881","lng":"-81.246"}},{"city":"Show Low","country":"United States","state":"AZ","region":"North America","geo_point":{"address":"Show Low, AZ, United States of America","lat":"34.2542","lng":"-110.0298"}},{"city":"Minneapolis","country":"United States","state":"MN","region":"North America","geo_point":{"address":"Minneapolis, MN, United States of America","lat":"44.9773","lng":"-93.2655"}},{"city":"Las Vegas","country":"United States","state":"NV","region":"North America","geo_point":{"address":"Las Vegas, NV, United States of America","lat":"36.1663","lng":"-115.1492"}},{"city":"Dallas","country":"United States","state":"TX","region":"North America","geo_point":{"address":"Dallas, TX, United States of America","lat":"32.7763","lng":"-96.7969"}}]},{"name":"LogicMonitor","id":507,"value_proposition":"Performance monitoring platform for enterprise IT.","group":"Current","industry_vertical":"Horizontal","logo":"http://localhost/wp-content/uploads/2019/05/LogicMonitor.svg","date_aquired":"05/17/2018","add_on_companies":false,"date_exited":"","hq_location":{"city":"Santa Barbara","country":"United States","state":"CA","region":"North America","geo_point":{"address":"Santa Barbara, CA, United States of America","lat":"34.4098","lng":"-119.697"}},"other_locations":[{"city":"Austin","country":"United States","state":"TX","region":"North America","geo_point":{"address":"Austin, TX, United States of America","lat":"30.2711","lng":"-97.7437"}},{"city":"London","country":"United Kingdom","state":"","region":"Europe","geo_point":{"address":"London, United Kingdom","lat":"51.50722","lng":"-0.1275"}},{"city":"Chengdu","country":"China","state":"","region":"Asia Pacific","geo_point":{"address":"Chengdu, China","lat":"30.66361","lng":"104.06667"}},{"city":"Singapore","country":"Singapore","state":"","region":"Asia Pacific","geo_point":{"address":"Singapore, Singapore","lat":"1.351616","lng":"103.808053"}}]},{"name":"KIBO Software","id":506,"value_proposition":"Ecommerce software, services, and expertise designed specifically for branded manufacturers and retailers.","group":"Current","industry_vertical":"Retail","logo":"http://localhost/wp-content/uploads/2019/05/KIBO-Software.svg","date_aquired":"12/18/2015","add_on_companies":[{"name":"Mozu","acquisition_date":"10/14/2016"},{"name":"Baynote","acquisition_date":"09/26/2016"},{"name":"Fiverun","acquisition_date":"12/23/2015"},{"name":"Shopatron","acquisition_date":"12/18/2015"}],"date_exited":"","hq_location":{"city":"Dallas","country":"United States","state":"TX","region":"North America","geo_point":{"address":"Dallas, TX, United States of America","lat":"32.7763","lng":"-96.7969"}},"other_locations":[{"city":"Petaluma","country":"United States","state":"CA","region":"North America","geo_point":{"address":"Petaluma, CA, United States of America","lat":"38.2326","lng":"-122.6365"}},{"city":"San Francisco","country":"United States","state":"CA","region":"North America","geo_point":{"address":"San Francisco, CA, United States of America","lat":"37.7648","lng":"-122.463"}},{"city":"San Luis Obispo","country":"United States","state":"CA","region":"North America","geo_point":{"address":"San Luis Obispo, CA, United States of America","lat":"35.2828","lng":"-120.6596"}},{"city":"Pleasanton","country":"United States","state":"CA","region":"North America","geo_point":{"address":"Pleasanton, CA, United States of America","lat":"37.6624","lng":"-121.8747"}},{"city":"Austin","country":"United States","state":"TX","region":"North America","geo_point":{"address":"Austin, TX, United States of America","lat":"30.2711","lng":"-97.7437"}},{"city":"Minsk","country":"Belarus","state":"","region":"Europe","geo_point":{"address":"Minsk, Belarus","lat":"53.90225","lng":"27.56184"}},{"city":"Swindon","country":"United Kingdom","state":"","region":"Europe","geo_point":{"address":"Swindon, United Kingdom","lat":"51.55833","lng":"-1.78111"}}]},{"name":"Jamf","id":505,"value_proposition":"Enterprise device management solutions for Apple platforms.","group":"Current","industry_vertical":"Horizontal","logo":"http://localhost/wp-content/uploads/2019/05/Jamf.svg","date_aquired":"11/13/2017","add_on_companies":false,"date_exited":"","hq_location":{"city":"Minneapolis","country":"United States","state":"MN","region":"North America","geo_point":{"address":"Minneapolis, MN, United States of America","lat":"44.9773","lng":"-93.2655"}},"other_locations":[{"city":"Cupertino","country":"United States","state":"CA","region":"North America","geo_point":{"address":"Cupertino, CA, United States of America","lat":"37.323","lng":"-122.0323"}},{"city":"New York","country":"United States","state":"NY","region":"North America","geo_point":{"address":"New York, NY, United States of America","lat":"40.7648","lng":"-73.9808"}},{"city":"Eau Claire","country":"United States","state":"WI","region":"North America","geo_point":{"address":"Eau Claire, WI, United States of America","lat":"44.8113","lng":"-91.4985"}},{"city":"Munich","country":"Germany","state":"","region":"Europe","geo_point":{"address":"Munich, Germany","lat":"48.13333","lng":"11.56667"}},{"city":"Amsterdam","country":"Netherlands","state":"","region":"Europe","geo_point":{"address":"Amsterdam, Netherlands","lat":"52.378","lng":"4.9"}},{"city":"Katowice","country":"Poland","state":"","region":"Europe","geo_point":{"address":"Katowice, Poland","lat":"50.25","lng":"19"}},{"city":"Sydney","country":"Australia","state":"","region":"Asia Pacific","geo_point":{"address":"Sydney, Australia","lat":"-33.868","lng":"151.21"}},{"city":"Hong Kong","country":"China","state":"","region":"Asia Pacific","geo_point":{"address":"Hong Kong, China","lat":"22.346578","lng":"114.135442"}},{"city":"Tokyo","country":"Japan","state":"","region":"Asia Pacific","geo_point":{"address":"Tokyo, Japan","lat":"35.68","lng":"139.77"}}]},{"name":"Integral Ad Science","id":504,"value_proposition":"Digital advertising analytics tools that provide global insight data.","group":"Current","industry_vertical":"Sales & Marketing","logo":"http://localhost/wp-content/uploads/2019/05/Integral-Ad-Science.svg","date_aquired":"07/19/2018","add_on_companies":false,"date_exited":"","hq_location":{"city":"New York","country":"United States","state":"NY","region":"North America","geo_point":{"address":"New York, NY, United States of America","lat":"40.7648","lng":"-73.9808"}},"other_locations":[{"city":"San Francisco","country":"United States","state":"CA","region":"North America","geo_point":{"address":"San Francisco, CA, United States of America","lat":"37.7648","lng":"-122.463"}},{"city":"Chicago","country":"United States","state":"IL","region":"North America","geo_point":{"address":"Chicago, IL, United States of America","lat":"41.8756","lng":"-87.6244"}},{"city":"Austin","country":"United States","state":"TX","region":"North America","geo_point":{"address":"Austin, TX, United States of America","lat":"30.2711","lng":"-97.7437"}},{"city":"Fairfax","country":"United States","state":"VA","region":"North America","geo_point":{"address":"Fairfax, VA, United States of America","lat":"38.8462","lng":"-77.3064"}},{"city":"Seattle","country":"United States","state":"WA","region":"North America","geo_point":{"address":"Seattle, WA, United States of America","lat":"47.6038","lng":"-122.3301"}},{"city":"São Paulo","country":"Brazil","state":"","region":"South America","geo_point":{"address":"São Paulo, Brazil","lat":"-23.5507","lng":"-46.6334"}},{"city":"Paris","country":"France","state":"","region":"Europe","geo_point":{"address":"Paris, France","lat":"48.859489","lng":"2.320582"}},{"city":"Berlin","country":"Germany","state":"","region":"Europe","geo_point":{"address":"Berlin, Germany","lat":"52.504043","lng":"13.393236"}},{"city":"Hamburg","country":"Germany","state":"","region":"Europe","geo_point":{"address":"Hamburg, Germany","lat":"53.55","lng":"10"}},{"city":"Milan","country":"Italy","state":"","region":"Europe","geo_point":{"address":"Milan, Italy","lat":"45.46416","lng":"9.19034"}},{"city":"Madrid","country":"Spain","state":"","region":"Europe","geo_point":{"address":"Madrid, Spain","lat":"40.41889","lng":"-3.69194"}},{"city":"London","country":"United Kingdom","state":"","region":"Europe","geo_point":{"address":"London, United Kingdom","lat":"51.50722","lng":"-0.1275"}},{"city":"Sydney","country":"Australia","state":"","region":"Asia Pacific","geo_point":{"address":"Sydney, Australia","lat":"-33.868","lng":"151.21"}},{"city":"Hong Kong","country":"China","state":"","region":"Asia Pacific","geo_point":{"address":"Hong Kong, China","lat":"22.346578","lng":"114.135442"}},{"city":"Tokyo","country":"Japan","state":"","region":"Asia Pacific","geo_point":{"address":"Tokyo, Japan","lat":"35.68","lng":"139.77"}},{"city":"Singapore","country":"Singapore","state":"","region":"Asia Pacific","geo_point":{"address":"Singapore, Singapore","lat":"1.351616","lng":"103.808053"}}]},{"name":"Infoblox","id":503,"value_proposition":"Paid enterprise DDI network automation and DNS security solutions.","group":"Current","industry_vertical":"Security","logo":"http://localhost/wp-content/uploads/2019/05/Infoblox.svg","date_aquired":"11/07/2016","add_on_companies":false,"date_exited":"","hq_location":{"city":"Santa Clara","country":"United States","state":"CA","region":"North America","geo_point":{"address":"Santa Clara, CA, United States of America","lat":"37.3541","lng":"-121.9552"}},"other_locations":[{"city":"Burnaby","country":"Canada","state":"","region":"North America","geo_point":{"address":"Burnaby, Canada","lat":"49.2433","lng":"-122.9726"}},{"city":"Mexico City","country":"Mexico","state":"","region":"North America","geo_point":{"address":"Mexico City, Mexico","lat":"19.41944","lng":"-99.14556"}},{"city":"Annapolis","country":"United States","state":"MD","region":"North America","geo_point":{"address":"Annapolis, MD, United States of America","lat":"38.9786","lng":"-76.4928"}},{"city":"New York","country":"United States","state":"NY","region":"North America","geo_point":{"address":"New York, NY, United States of America","lat":"40.7648","lng":"-73.9808"}},{"city":"Tacoma","country":"United States","state":"WA","region":"North America","geo_point":{"address":"Tacoma, WA, United States of America","lat":"47.2496","lng":"-122.4399"}},{"city":"Herndon","country":"United States","state":"VA","region":"North America","geo_point":{"address":"Herndon, VA, United States of America","lat":"38.9695","lng":"-77.3859"}},{"city":"Antwerp","country":"Belgium","state":"","region":"Europe","geo_point":{"address":"Antwerp, Belgium","lat":"51.2206","lng":"4.3997"}},{"city":"Neuilly-sur-Seine","country":"France","state":"","region":"Europe","geo_point":{"address":"Neuilly-sur-Seine, France","lat":"47.23972","lng":"3.50278"}},{"city":"Frankfurt","country":"Germany","state":"","region":"Europe","geo_point":{"address":"Frankfurt, Germany","lat":"50.11361","lng":"8.67972"}},{"city":"Munich","country":"Germany","state":"","region":"Europe","geo_point":{"address":"Munich, Germany","lat":"48.13333","lng":"11.56667"}},{"city":"Amsterdam","country":"Netherlands","state":"","region":"Europe","geo_point":{"address":"Amsterdam, Netherlands","lat":"52.378","lng":"4.9"}},{"city":"Moscow","country":"Russia","state":"","region":"Europe","geo_point":{"address":"Moscow, Russia","lat":"55.75583","lng":"37.61778"}},{"city":"Madrid","country":"Spain","state":"","region":"Europe","geo_point":{"address":"Madrid, Spain","lat":"40.41889","lng":"-3.69194"}},{"city":"Stockholm","country":"Sweden","state":"","region":"Europe","geo_point":{"address":"Stockholm, Sweden","lat":"59.32944","lng":"18.06861"}},{"city":"London","country":"United Kingdom","state":"","region":"Europe","geo_point":{"address":"London, United Kingdom","lat":"51.50722","lng":"-0.1275"}},{"city":"Riyadh","country":"Saudi Arabia","state":"","region":"Middle East","geo_point":{"address":"Riyadh, Saudi Arabia","lat":"24.633333","lng":"46.716667"}},{"city":"Istanbul","country":"Turkey","state":"","region":"Middle East","geo_point":{"address":"Istanbul, Turkey","lat":"41.008098","lng":"28.97839"}},{"city":"Dubai","country":"United Arab Emirates","state":"","region":"Middle East","geo_point":{"address":"Dubai, United Arab Emirates","lat":"25.2684","lng":"55.2962"}},{"city":"Sydney","country":"Australia","state":"","region":"Asia Pacific","geo_point":{"address":"Sydney, Australia","lat":"-33.868","lng":"151.21"}},{"city":"Beijing","country":"China","state":"","region":"Asia Pacific","geo_point":{"address":"Beijing, China","lat":"39.905","lng":"116.39139"}},{"city":"Shanghai","country":"China","state":"","region":"Asia Pacific","geo_point":{"address":"Shanghai, China","lat":"31.16667","lng":"121.46667"}},{"city":"Shenzhen","country":"China","state":"","region":"Asia Pacific","geo_point":{"address":"Shenzhen, China","lat":"22.535383","lng":"114.05471"}},{"city":"Bengaluru","country":"India","state":"","region":"Asia Pacific","geo_point":{"address":"Bengaluru, India","lat":"12.96991","lng":"77.59796"}},{"city":"Trivandrum","country":"India","state":"","region":"Asia Pacific","geo_point":{"address":"Trivandrum, India","lat":"8.418699","lng":"76.990228"}},{"city":"Gurgaon","country":"India","state":"","region":"Asia Pacific","geo_point":{"address":"Gurgaon, India","lat":"28.4231878","lng":"76.8496966"}},{"city":"Jakarta","country":"Indonesia","state":"","region":"Asia Pacific","geo_point":{"address":"Jakarta, Indonesia","lat":"-6.173292","lng":"106.841036"}},{"city":"Tokyo","country":"Japan","state":"","region":"Asia Pacific","geo_point":{"address":"Tokyo, Japan","lat":"35.68","lng":"139.77"}},{"city":"Kuala Lumpur","country":"Malaysia","state":"","region":"Asia Pacific","geo_point":{"address":"Kuala Lumpur, Malaysia","lat":"3.130236","lng":"101.687618"}},{"city":"Singapore","country":"Singapore","state":"","region":"Asia Pacific","geo_point":{"address":"Singapore, Singapore","lat":"1.351616","lng":"103.808053"}},{"city":"Taipei","country":"Taiwan","state":"","region":"Asia Pacific","geo_point":{"address":"Taipei, Taiwan","lat":"25.093197","lng":"121.558442"}},{"city":"Bangkok","country":"Thailand","state":"","region":"Asia Pacific","geo_point":{"address":"Bangkok, Thailand","lat":"13.75","lng":"100.51667"}},{"city":"Seoul","country":"South Korea","state":"","region":"Asia Pacific","geo_point":{"address":"Seoul, South Korea","lat":"37.564771","lng":"126.939358"}}]},{"name":"ICIMS","id":502,"value_proposition":"Provides talent acquisition software solutions for businesses in the United States and internationally.","group":"Current","industry_vertical":"Horizontal","logo":"http://localhost/wp-content/uploads/2019/05/iCIMS.svg","date_aquired":"08/14/2018","add_on_companies":false,"date_exited":"","hq_location":{"city":"Matawan","country":"United States","state":"NJ","region":"North America","geo_point":{"address":"Matawan, NJ, United States of America","lat":"40.4105179","lng":"-74.253253"}},"other_locations":[{"city":"Holmdel","country":"United States","state":"NJ","region":"North America","geo_point":{"address":"Holmdel, NJ, United States of America","lat":"40.3451","lng":"-74.184"}},{"city":"San Jose","country":"United States","state":"CA","region":"North America","geo_point":{"address":"San Jose, CA, United States of America","lat":"37.2751","lng":"-121.8261"}},{"city":"London","country":"United Kingdom","state":"","region":"Europe","geo_point":{"address":"London, United Kingdom","lat":"51.50722","lng":"-0.1275"}}]},{"name":"Greenway Health","id":501,"value_proposition":"Clinical, financial, connectivity, and information software products and services for physician practices.","group":"Current","industry_vertical":"Healthcare","logo":"http://localhost/wp-content/uploads/2019/05/Greenway-Health.svg","date_aquired":"11/10/2011","add_on_companies":[{"name":"Lightbeam","acquisition_date":"04/29/2015"},{"name":"PeopleLYNK","acquisition_date":"02/24/2014"},{"name":"Greenway","acquisition_date":"11/04/2013"},{"name":"SuccessEHS","acquisition_date":"07/25/2013"}],"date_exited":"","hq_location":{"city":"Carrollton","country":"United States","state":"GA","region":"North America","geo_point":{"address":"Carrollton, GA, United States of America","lat":"33.5801","lng":"-85.0766"}},"other_locations":[{"city":"Alachua","country":"United States","state":"FL","region":"North America","geo_point":{"address":"Alachua, FL, United States of America","lat":"29.7895","lng":"-82.4875"}},{"city":"Lake Mary","country":"United States","state":"FL","region":"North America","geo_point":{"address":"Lake Mary, FL, United States of America","lat":"28.7563","lng":"-81.3221"}},{"city":"Tampa","country":"United States","state":"FL","region":"North America","geo_point":{"address":"Tampa, FL, United States of America","lat":"27.9478","lng":"-82.4584"}},{"city":"Birmingham","country":"United States","state":"AL","region":"North America","geo_point":{"address":"Birmingham, AL, United States of America","lat":"33.5207","lng":"-86.8024"}},{"city":"Atlanta","country":"United States","state":"GA","region":"North America","geo_point":{"address":"Atlanta, GA, United States of America","lat":"33.7491","lng":"-84.3902"}}]},{"name":"Granicus","id":500,"value_proposition":"Cloud-based government transparency, legislative management, and digital marketing solutions for the government and education markets.","group":"Current","industry_vertical":"Government","logo":"http://localhost/wp-content/uploads/2019/05/Granicus.svg","date_aquired":"09/07/2016","add_on_companies":[{"name":"IQM2","acquisition_date":"03/12/2018"},{"name":"Vision Technology Solutions","acquisition_date":"02/19/2018"},{"name":"Novusolutions","acquisition_date":"08/08/2017"},{"name":"GovDelivery","acquisition_date":"10/18/2016"},{"name":"SouthTech Systems","acquisition_date":"11/09/2018"}],"date_exited":"","hq_location":{"city":"Denver","country":"United States","state":"CO","region":"North America","geo_point":{"address":"Denver, CO, United States of America","lat":"39.7348","lng":"-104.9653"}},"other_locations":[{"city":"San Francisco","country":"United States","state":"CA","region":"North America","geo_point":{"address":"San Francisco, CA, United States of America","lat":"37.7648","lng":"-122.463"}},{"city":"Saint Paul","country":"United States","state":"MN","region":"North America","geo_point":{"address":"Saint Paul, MN, United States of America","lat":"44.9504","lng":"-93.1015"}},{"city":"Leesburg","country":"United States","state":"VA","region":"North America","geo_point":{"address":"Leesburg, VA, United States of America","lat":"39.1154","lng":"-77.5645"}},{"city":"Washington","country":"United States","state":"D.C.","region":"North America","geo_point":{"address":"Washington, D.C., United States of America","lat":"38.8973392","lng":"-77.0386857"}},{"city":"City Place","country":"United Kingdom","state":"","region":"Europe","geo_point":{"address":"City Place, United Kingdom","lat":"53.761899","lng":"-1.4975"}}]},{"name":"Gather","id":499,"value_proposition":"Cloud-based software platform for planning and managing private events.","group":"Current","industry_vertical":"Hospitality","logo":"http://localhost/wp-content/uploads/2019/05/Gather.svg","date_aquired":"08/31/2017","add_on_companies":[{"name":"EVENTUp","acquisition_date":"06/18/2018"}],"date_exited":"","hq_location":{"city":"Atlanta","country":"United States","state":"GA","region":"North America","geo_point":{"address":"Atlanta, GA, United States of America","lat":"33.7491","lng":"-84.3902"}},"other_locations":[]},{"name":"Forcepoint","id":498,"value_proposition":"Cybersecurity systems that protect against threats and provide unobstructed access to critical data and intellectual property.","group":"Current","industry_vertical":"Security","logo":"http://localhost/wp-content/uploads/2019/05/Forcepoint.svg","date_aquired":"05/29/2015","add_on_companies":[{"name":"RedOwl","acquisition_date":"08/28/2017"},{"name":"Skyfence","acquisition_date":"02/23/2017"},{"name":"Stonesoft","acquisition_date":"01/14/2016"},{"name":"Sidewinder","acquisition_date":"01/14/2016"}],"date_exited":"","hq_location":{"city":"Austin","country":"United States","state":"TX","region":"North America","geo_point":{"address":"Austin, TX, United States of America","lat":"30.2711","lng":"-97.7437"}},"other_locations":[{"city":"Fredericton","country":"Canada","state":"","region":"North America","geo_point":{"address":"Fredericton, Canada","lat":"45.9646","lng":"-66.6438"}},{"city":"Mexico City","country":"Mexico","state":"","region":"North America","geo_point":{"address":"Mexico City, Mexico","lat":"19.41944","lng":"-99.14556"}},{"city":"San Diego","country":"United States","state":"CA","region":"North America","geo_point":{"address":"San Diego, CA, United States of America","lat":"32.7174","lng":"-117.1628"}},{"city":"Santa Clara","country":"United States","state":"CA","region":"North America","geo_point":{"address":"Santa Clara, CA, United States of America","lat":"37.3541","lng":"-121.9552"}},{"city":"Champaign","country":"United States","state":"IL","region":"North America","geo_point":{"address":"Champaign, IL, United States of America","lat":"40.1164","lng":"-88.2434"}},{"city":"Melbourne","country":"United States","state":"FL","region":"North America","geo_point":{"address":"Melbourne, FL, United States of America","lat":"28.0836","lng":"-80.6081"}},{"city":"Baltimore","country":"United States","state":"MD","region":"North America","geo_point":{"address":"Baltimore, MD, United States of America","lat":"39.2909","lng":"-76.6108"}},{"city":"Annapolis Junction","country":"United States","state":"MD","region":"North America","geo_point":{"address":"Annapolis Junction, MD, United States of America","lat":"38.9786","lng":"-76.4928"}},{"city":"Minneapolis","country":"United States","state":"MN","region":"North America","geo_point":{"address":"Minneapolis, MN, United States of America","lat":"44.9773","lng":"-93.2655"}},{"city":"New York","country":"United States","state":"NY","region":"North America","geo_point":{"address":"New York, NY, United States of America","lat":"40.7648","lng":"-73.9808"}},{"city":"San Antonio","country":"United States","state":"TX","region":"North America","geo_point":{"address":"San Antonio, TX, United States of America","lat":"29.4246","lng":"-98.4951"}},{"city":"Herndon","country":"United States","state":"VA","region":"North America","geo_point":{"address":"Herndon, VA, United States of America","lat":"38.9695","lng":"-77.3859"}},{"city":"Salt Lake City","country":"United States","state":"UT","region":"North America","geo_point":{"address":"Salt Lake City, UT, United States of America","lat":"40.767","lng":"-111.8904"}},{"city":"American Fork","country":"United States","state":"UT","region":"North America","geo_point":{"address":"American Fork, UT, United States of America","lat":"40.3769","lng":"-111.7958"}},{"city":"São Paulo","country":"Brazil","state":"","region":"South America","geo_point":{"address":"São Paulo, Brazil","lat":"-23.5507","lng":"-46.6334"}},{"city":"Helsinki","country":"Finland","state":"","region":"Europe","geo_point":{"address":"Helsinki, Finland","lat":"60.17333","lng":"24.94861"}},{"city":"Paris","country":"France","state":"","region":"Europe","geo_point":{"address":"Paris, France","lat":"48.859489","lng":"2.320582"}},{"city":"Valbonne","country":"France","state":"","region":"Europe","geo_point":{"address":"Valbonne, France","lat":"43.64139","lng":"7.00889"}},{"city":"Munich","country":"Germany","state":"","region":"Europe","geo_point":{"address":"Munich, Germany","lat":"48.13333","lng":"11.56667"}},{"city":"Cork","country":"Ireland","state":"","region":"Europe","geo_point":{"address":"Cork, Ireland","lat":"51.900372","lng":"-8.455717"}},{"city":"Dublin","country":"Ireland","state":"","region":"Europe","geo_point":{"address":"Dublin, Ireland","lat":"53.34929607","lng":"-6.26036167"}},{"city":"Milan","country":"Italy","state":"","region":"Europe","geo_point":{"address":"Milan, Italy","lat":"45.46416","lng":"9.19034"}},{"city":"Rome","country":"Italy","state":"","region":"Europe","geo_point":{"address":"Rome, Italy","lat":"41.89306","lng":"12.48278"}},{"city":"Utrecht","country":"Netherlands","state":"","region":"Europe","geo_point":{"address":"Utrecht, Netherlands","lat":"52.08889","lng":"5.11556"}},{"city":"Krakow","country":"Poland","state":"","region":"Europe","geo_point":{"address":"Krakow, Poland","lat":"50.06667","lng":"19.95"}},{"city":"Warsaw","country":"Poland","state":"","region":"Europe","geo_point":{"address":"Warsaw, Poland","lat":"52.21667","lng":"21.03333"}},{"city":"Madrid","country":"Spain","state":"","region":"Europe","geo_point":{"address":"Madrid, Spain","lat":"40.41889","lng":"-3.69194"}},{"city":"Stockholm","country":"Sweden","state":"","region":"Europe","geo_point":{"address":"Stockholm, Sweden","lat":"59.32944","lng":"18.06861"}},{"city":"London","country":"United Kingdom","state":"","region":"Europe","geo_point":{"address":"London, United Kingdom","lat":"51.50722","lng":"-0.1275"}},{"city":"Reading","country":"United Kingdom","state":"","region":"Europe","geo_point":{"address":"Reading, United Kingdom","lat":"51.45417","lng":"-0.97306"}},{"city":"Ra'anana","country":"Israel","state":"","region":"Middle East","geo_point":{"address":"Ra'anana, Israel","lat":"32.184004","lng":"34.871529"}},{"city":"Ramat Gan","country":"Israel","state":"","region":"Middle East","geo_point":{"address":"Ramat Gan, Israel","lat":"32.070065","lng":"34.82644"}},{"city":"Ankara","country":"Turkey","state":"","region":"Middle East","geo_point":{"address":"Ankara, Turkey","lat":"39.86667","lng":"32.86667"}},{"city":"Istanbul","country":"Turkey","state":"","region":"Middle East","geo_point":{"address":"Istanbul, Turkey","lat":"41.008098","lng":"28.97839"}},{"city":"Dubai","country":"United Arab Emirates","state":"","region":"Middle East","geo_point":{"address":"Dubai, United Arab Emirates","lat":"25.2684","lng":"55.2962"}},{"city":"Sydney","country":"Australia","state":"","region":"Asia Pacific","geo_point":{"address":"Sydney, Australia","lat":"-33.868","lng":"151.21"}},{"city":"Beijing","country":"China","state":"","region":"Asia Pacific","geo_point":{"address":"Beijing, China","lat":"39.905","lng":"116.39139"}},{"city":"Hong Kong","country":"China","state":"","region":"Asia Pacific","geo_point":{"address":"Hong Kong, China","lat":"22.346578","lng":"114.135442"}},{"city":"Shanghai","country":"China","state":"","region":"Asia Pacific","geo_point":{"address":"Shanghai, China","lat":"31.16667","lng":"121.46667"}},{"city":"Shenzhen","country":"China","state":"","region":"Asia Pacific","geo_point":{"address":"Shenzhen, China","lat":"22.535383","lng":"114.05471"}},{"city":"Bengaluru","country":"India","state":"","region":"Asia Pacific","geo_point":{"address":"Bengaluru, India","lat":"12.96991","lng":"77.59796"}},{"city":"Chennai","country":"India","state":"","region":"Asia Pacific","geo_point":{"address":"Chennai, India","lat":"13.09","lng":"80.27"}},{"city":"Mumbai","country":"India","state":"","region":"Asia Pacific","geo_point":{"address":"Mumbai, India","lat":"18.96667","lng":"72.83333"}},{"city":"New Delhi","country":"India","state":"","region":"Asia Pacific","geo_point":{"address":"New Delhi, India","lat":"28.7","lng":"77.2"}},{"city":"Singapore","country":"Singapore","state":"","region":"Asia Pacific","geo_point":{"address":"Singapore, Singapore","lat":"1.351616","lng":"103.808053"}},{"city":"Tokyo","country":"Japan","state":"","region":"Asia Pacific","geo_point":{"address":"Tokyo, Japan","lat":"35.68","lng":"139.77"}}]},{"name":"EagleView","id":497,"value_proposition":"3D roofing estimate software, geo-referenced aerial image capture, and visual-centric data analytics","group":"Current","date_exited":"05/14/2019","industry_vertical":"Real Estate","logo":"http://localhost/wp-content/uploads/2019/05/EagleView.svg","date_aquired":"07/15/2015","add_on_companies":[{"name":"Spookfish","acquisition_date":"12/10/2018"},{"name":"OmniEarth","acquisition_date":"05/01/2017"}],"hq_location":{"city":"Bothell","country":"United States","state":"WA","region":"North America","geo_point":{"address":"Bothell, WA, United States of America","lat":"47.7599","lng":"-122.2068"}},"other_locations":[{"city":"Woburn","country":"United States","state":"MA","region":"North America","geo_point":{"address":"Woburn, MA, United States of America","lat":"42.4793","lng":"-71.1523"}},{"city":"Arlington","country":"United States","state":"VA","region":"North America","geo_point":{"address":"Arlington, VA, United States of America","lat":"38.8769","lng":"-77.0893"}},{"city":"Bellevue","country":"United States","state":"WA","region":"North America","geo_point":{"address":"Bellevue, WA, United States of America","lat":"47.6144","lng":"-122.1923"}},{"city":"Rochester","country":"United States","state":"NY","region":"North America","geo_point":{"address":"Rochester, NY, United States of America","lat":"43.1573","lng":"-77.6152"}}]},{"name":"EAB","id":496,"value_proposition":"Best practices research, student success management software, and data-enabled enrollment solutions for the higher education and K-12 markets.","group":"Current","industry_vertical":"Education","logo":"http://localhost/wp-content/uploads/2019/05/EAB.svg","date_aquired":"11/17/2017","add_on_companies":false,"date_exited":"","hq_location":{"city":"Washington","country":"United States","state":"D.C.","region":"North America","geo_point":{"address":"Washington, D.C., United States of America","lat":"38.8973392","lng":"-77.0386857"}},"other_locations":[{"city":"Birmingham","country":"United States","state":"AL","region":"North America","geo_point":{"address":"Birmingham, AL, United States of America","lat":"33.5207","lng":"-86.8024"}},{"city":"Richmond","country":"United States","state":"VA","region":"North America","geo_point":{"address":"Richmond, VA, United States of America","lat":"37.5385","lng":"-77.4343"}},{"city":"Bloomington","country":"United States","state":"MN","region":"North America","geo_point":{"address":"Bloomington, MN, United States of America","lat":"44.8322","lng":"-93.3205"}}]},{"name":"Dispatch","id":495,"value_proposition":"Provider of SaaS field services management software.","group":"Current","industry_vertical":"Managed Services","logo":"http://localhost/wp-content/uploads/2019/05/Dispatch.svg","date_aquired":"06/13/2017","add_on_companies":false,"date_exited":"","hq_location":{"city":"Boston","country":"United States","state":"MA","region":"North America","geo_point":{"address":"Boston, MA, United States of America","lat":"42.3605","lng":"-71.0596"}},"other_locations":[]},{"name":"DealerSocket","id":494,"value_proposition":"SaaS enterprise relationship management solutions for retail and independent automotive industries.","group":"Current","industry_vertical":"Automotive","logo":"http://localhost/wp-content/uploads/2019/05/DealerSocket.svg","date_aquired":"05/13/2014","add_on_companies":[{"name":"Dealertrack Inventory+","acquisition_date":"10/01/2015"},{"name":"AutoStar Solutions","acquisition_date":"05/01/2015"},{"name":"Finance Express","acquisition_date":"02/26/2015"},{"name":"DealerFire","acquisition_date":"01/16/2015"}],"date_exited":"","hq_location":{"city":"San Clemente","country":"United States","state":"CA","region":"North America","geo_point":{"address":"San Clemente, CA, United States of America","lat":"33.427","lng":"-117.6124"}},"other_locations":[{"city":"Mississauga","country":"Canada","state":"","region":"North America","geo_point":{"address":"Mississauga, Canada","lat":"43.5893","lng":"-79.6442"}},{"city":"Draper","country":"United States","state":"UT","region":"North America","geo_point":{"address":"Draper, UT, United States of America","lat":"40.5247","lng":"-111.8638"}},{"city":"Irving","country":"United States","state":"TX","region":"North America","geo_point":{"address":"Irving, TX, United States of America","lat":"32.814","lng":"-96.9489"}},{"city":"Oshkosh","country":"United States","state":"WI","region":"North America","geo_point":{"address":"Oshkosh, WI, United States of America","lat":"44.018177","lng":"-88.6353209"}},{"city":"Provo","country":"United States","state":"UT","region":"North America","geo_point":{"address":"Provo, UT, United States of America","lat":"40.2338","lng":"-111.6585"}},{"city":"Kaliningrad","country":"Russia","state":"","region":"Europe","geo_point":{"address":"Kaliningrad, Russia","lat":"54.71667","lng":"20.5"}}]},{"name":"Datto","id":493,"value_proposition":"Complete business and technology solutions suite for managed and IT service providers.","group":"Current","industry_vertical":"Managed Services","logo":"http://localhost/wp-content/uploads/2019/05/Datto.svg","date_aquired":"12/07/2017","add_on_companies":[{"name":"Soonr","acquisition_date":"07/29/2015"},{"name":"CentraStage","acquisition_date":"09/10/2014"},{"name":"Autotask","acquisition_date":"06/25/2014"}],"date_exited":"","hq_location":{"city":"Norwalk","country":"United States","state":"CT","region":"North America","geo_point":{"address":"Norwalk, CT, United States of America","lat":"41.1176","lng":"-73.4079"}},"other_locations":[{"city":"Toronto","country":"Canada","state":"","region":"North America","geo_point":{"address":"Toronto, Canada","lat":"43.6529","lng":"-79.3849"}},{"city":"Irvine","country":"United States","state":"CA","region":"North America","geo_point":{"address":"Irvine, CA, United States of America","lat":"33.6857","lng":"-117.826"}},{"city":"Monroe","country":"United States","state":"CT","region":"North America","geo_point":{"address":"Monroe, CT, United States of America","lat":"32.5093","lng":"-92.1193"}},{"city":"San Jose","country":"United States","state":"CA","region":"North America","geo_point":{"address":"San Jose, CA, United States of America","lat":"37.2751","lng":"-121.8261"}},{"city":"Schaumburg","country":"United States","state":"IL","region":"North America","geo_point":{"address":"Schaumburg, IL, United States of America","lat":"42.0334","lng":"-88.0834"}},{"city":"Boston","country":"United States","state":"MA","region":"North America","geo_point":{"address":"Boston, MA, United States of America","lat":"42.3605","lng":"-71.0596"}},{"city":"Rochester","country":"United States","state":"NY","region":"North America","geo_point":{"address":"Rochester, NY, United States of America","lat":"43.1573","lng":"-77.6152"}},{"city":"New York","country":"United States","state":"NY","region":"North America","geo_point":{"address":"New York, NY, United States of America","lat":"40.7648","lng":"-73.9808"}},{"city":"East Greenbush","country":"United States","state":"NY","region":"North America","geo_point":{"address":"East Greenbush, NY, United States of America","lat":"42.5909","lng":"-73.7018"}},{"city":"Portland","country":"United States","state":"OR","region":"North America","geo_point":{"address":"Portland, OR, United States of America","lat":"45.5202","lng":"-122.6742"}},{"city":"Dallas","country":"United States","state":"TX","region":"North America","geo_point":{"address":"Dallas, TX, United States of America","lat":"32.7763","lng":"-96.7969"}},{"city":"Lyngby","country":"Denmark","state":"","region":"Europe","geo_point":{"address":"Lyngby, Denmark","lat":"55.77","lng":"12.5"}},{"city":"Munich","country":"Germany","state":"","region":"Europe","geo_point":{"address":"Munich, Germany","lat":"48.13333","lng":"11.56667"}},{"city":"Amsterdam","country":"Netherlands","state":"","region":"Europe","geo_point":{"address":"Amsterdam, Netherlands","lat":"52.378","lng":"4.9"}},{"city":"Amersham","country":"United Kingdom","state":"","region":"Europe","geo_point":{"address":"Amersham, United Kingdom","lat":"51.66667","lng":"-0.63333"}},{"city":"Manchester","country":"United Kingdom","state":"","region":"Europe","geo_point":{"address":"Manchester, United Kingdom","lat":"53.46667","lng":"-2.23333"}},{"city":"Reading","country":"United Kingdom","state":"","region":"Europe","geo_point":{"address":"Reading, United Kingdom","lat":"51.45417","lng":"-0.97306"}},{"city":"Richmond","country":"United Kingdom","state":"","region":"Europe","geo_point":{"address":"Richmond, United Kingdom","lat":"51.4713296","lng":"-0.3876112"}},{"city":"Sydney","country":"Australia","state":"","region":"Asia Pacific","geo_point":{"address":"Sydney, Australia","lat":"-33.868","lng":"151.21"}},{"city":"Beijing","country":"China","state":"","region":"Asia Pacific","geo_point":{"address":"Beijing, China","lat":"39.905","lng":"116.39139"}},{"city":"Singapore","country":"Singapore","state":"","region":"Asia Pacific","geo_point":{"address":"Singapore, Singapore","lat":"1.351616","lng":"103.808053"}}]},{"name":"Cvent","id":492,"value_proposition":"Enterprise event management platform with solutions for both the events and meetings value chain.","group":"Current","industry_vertical":"Hospitality","logo":"http://localhost/wp-content/uploads/2019/05/Cvent.svg","date_aquired":"11/29/2016","add_on_companies":[{"name":"Kapow","acquisition_date":"06/05/2018"},{"name":"QuickMobile","acquisition_date":"05/31/2018"},{"name":"GenieConnect","acquisition_date":"12/12/2014"},{"name":"Passkey","acquisition_date":"04/24/2014"},{"name":"Lanyon","acquisition_date":"12/27/2012"},{"name":"Social Tables","acquisition_date":"10/16/2018"}],"date_exited":"","hq_location":{"city":"Tysons Corner","country":"United States","state":"VA","region":"North America","geo_point":{"address":"Tysons Corner, VA, United States of America","lat":"38.916542","lng":"-77.2482605"}},"other_locations":[{"city":"Fredericton","country":"Canada","state":"","region":"North America","geo_point":{"address":"Fredericton, Canada","lat":"45.9646","lng":"-66.6438"}},{"city":"Portland","country":"United States","state":"OR","region":"North America","geo_point":{"address":"Portland, OR, United States of America","lat":"45.5202","lng":"-122.6742"}},{"city":"Lexington","country":"United States","state":"MA","region":"North America","geo_point":{"address":"Lexington, MA, United States of America","lat":"42.4473","lng":"-71.2245"}},{"city":"Atlanta","country":"United States","state":"GA","region":"North America","geo_point":{"address":"Atlanta, GA, United States of America","lat":"33.7491","lng":"-84.3902"}},{"city":"Philadelphia","country":"United States","state":"PA","region":"North America","geo_point":{"address":"Philadelphia, PA, United States of America","lat":"40.0115","lng":"-75.1327"}},{"city":"Portsmouth","country":"United States","state":"NH","region":"North America","geo_point":{"address":"Portsmouth, NH, United States of America","lat":"43.0718","lng":"-70.7626"}},{"city":"Austin","country":"United States","state":"TX","region":"North America","geo_point":{"address":"Austin, TX, United States of America","lat":"30.2711","lng":"-97.7437"}},{"city":"Dallas","country":"United States","state":"TX","region":"North America","geo_point":{"address":"Dallas, TX, United States of America","lat":"32.7763","lng":"-96.7969"}},{"city":"Irving","country":"United States","state":"TX","region":"North America","geo_point":{"address":"Irving, TX, United States of America","lat":"32.814","lng":"-96.9489"}},{"city":"McLean","country":"United States","state":"VA","region":"North America","geo_point":{"address":"McLean, VA, United States of America","lat":"38.92","lng":"-77.22"}},{"city":"Draper","country":"United States","state":"UT","region":"North America","geo_point":{"address":"Draper, UT, United States of America","lat":"40.5247","lng":"-111.8638"}},{"city":"Melbourne","country":"Australia","state":"","region":"Asia Pacific","geo_point":{"address":"Melbourne, Australia","lat":"-37.8142","lng":"144.9632"}},{"city":"Gurugram","country":"India","state":"","region":"Asia Pacific","geo_point":{"address":"Gurugram, India","lat":"28.46667","lng":"77.03333"}},{"city":"Singapore","country":"Singapore","state":"","region":"Asia Pacific","geo_point":{"address":"Singapore, Singapore","lat":"1.351616","lng":"103.808053"}},{"city":"London","country":"United Kingdom","state":"","region":"Europe","geo_point":{"address":"London, United Kingdom","lat":"51.50722","lng":"-0.1275"}},{"city":"Maidenhead","country":"United Kingdom","state":"","region":"Europe","geo_point":{"address":"Maidenhead, United Kingdom","lat":"51.51667","lng":"-0.71667"}}]},{"name":"ComplySci","id":491,"value_proposition":"SaaS provider of regulatory technology for financial and professional services companies.","group":"Current","industry_vertical":"Financial Services","logo":"http://localhost/wp-content/uploads/2019/05/ComplySci.svg","date_aquired":"08/20/2018","add_on_companies":false,"date_exited":"","hq_location":{"city":"New York","country":"United States","state":"NY","region":"North America","geo_point":{"address":"New York, NY, United States of America","lat":"40.7648","lng":"-73.9808"}},"other_locations":[{"city":"London","country":"United Kingdom","state":"","region":"Europe","geo_point":{"address":"London, United Kingdom","lat":"51.50722","lng":"-0.1275"}}]},{"name":"CentralSquare Technologies","id":490,"value_proposition":"Market-leading government tech platform of scale spanning all state and local government tiers across the U.S. and Canada.","group":"Current","industry_vertical":"Government","logo":"http://localhost/wp-content/uploads/2019/05/CentralSquare-Technologies.svg","date_aquired":"08/31/2018","add_on_companies":[{"name":"Lucity","acquisition_date":"12/21/2018"}],"date_exited":"","hq_location":{"city":"Lake Mary","country":"United States","state":"FL","region":"North America","geo_point":{"address":"Lake Mary, FL, United States of America","lat":"28.7563","lng":"-81.3221"}},"other_locations":[{"city":"Chico","country":"United States","state":"CA","region":"North America","geo_point":{"address":"Chico, CA, United States of America","lat":"39.7285","lng":"-121.8375"}},{"city":"Carlsbad","country":"United States","state":"CA","region":"North America","geo_point":{"address":"Carlsbad, CA, United States of America","lat":"33.1581","lng":"-117.3506"}},{"city":"Fort Lauderdale","country":"United States","state":"FL","region":"North America","geo_point":{"address":"Fort Lauderdale, FL, United States of America","lat":"26.1412497","lng":"-80.2156073"}},{"city":"Greensboro","country":"United States","state":"NC","region":"North America","geo_point":{"address":"Greensboro, NC, United States of America","lat":"36.1004553","lng":"-79.9734629"}}]},{"name":"Bullhorn","id":489,"value_proposition":"Cloud-based CRM solutions for companies in business service industries.","group":"Former","date_exited":"05/14/2019","industry_vertical":"HR & Recruiting","logo":"http://localhost/wp-content/uploads/2019/05/Bullhorn.svg","date_aquired":"06/13/2012","add_on_companies":[{"name":"Connexys","acquisition_date":"09/06/2017"},{"name":"The Code Works","acquisition_date":"08/07/2014"},{"name":"Easy Software Solutions","acquisition_date":"07/24/2013"},{"name":"Sendouts, LLC","acquisition_date":"11/28/2012"},{"name":"MaxHire Solutions","acquisition_date":"11/28/2012"}],"hq_location":{"city":"Boston","country":"United States","state":"MA","region":"North America","geo_point":{"address":"Boston, MA, United States of America","lat":"42.3605","lng":"-71.0596"}},"other_locations":[{"city":"St. Louis","country":"United States","state":"MO","region":"North America","geo_point":{"address":"St. Louis, MO, United States of America","lat":"38.653285","lng":"-90.3835462"}}]},{"name":"Brainware","id":488,"value_proposition":"Intelligent data capture and search and retrieval software solutions that enable enterprises to streamline the input and retrieval of critical business information.","group":"Former","date_exited":"05/14/2019","industry_vertical":"Horizontal","logo":"http://localhost/wp-content/uploads/2019/05/Brainware.svg","date_aquired":"06/10/2003","add_on_companies":false,"hq_location":{"city":"Dulles","country":"United States","state":"VA","region":"North America","geo_point":{"address":"Dulles, VA, United States of America","lat":"38.98861","lng":"-77.450815"}},"other_locations":[{"city":"Ashburn","country":"United States","state":"VA","region":"North America","geo_point":{"address":"Ashburn, VA, United States of America","lat":"39.0437","lng":"-77.4875"}}]},{"name":"BigMachines","id":487,"value_proposition":"On-demand software solutions enabling enterprises to streamline their front-end selling processes and to better serve their customers and channel partners.","group":"Former","date_exited":"05/14/2019","industry_vertical":"Horizontal","logo":"http://localhost/wp-content/uploads/2019/05/BigMachines.svg","date_aquired":"12/28/2010","add_on_companies":false,"hq_location":{"city":"Deerfield","country":"United States","state":"IL","region":"North America","geo_point":{"address":"Deerfield, IL, United States of America","lat":"42.1711","lng":"-87.8445"}},"other_locations":[]},{"name":"Aspira","id":486,"value_proposition":"Cloud-based software for campground management, hunting and fishing licensing, and recreational vehicle licensing.","group":"Current","industry_vertical":"Sports, Media & Entertainment","logo":"http://localhost/wp-content/uploads/2019/05/Aspira.svg","date_aquired":"08/31/2017","add_on_companies":[{"name":"Mission Management","acquisition_date":"11/30/2018"}],"date_exited":"","hq_location":{"city":"Dallas","country":"United States","state":"TX","region":"North America","geo_point":{"address":"Dallas, TX, United States of America","lat":"32.7763","lng":"-96.7969"}},"other_locations":[{"city":"Mississauga","country":"Canada","state":"","region":"North America","geo_point":{"address":"Mississauga, Canada","lat":"43.5893","lng":"-79.6442"}},{"city":"Sacramento","country":"United States","state":"CA","region":"North America","geo_point":{"address":"Sacramento, CA, United States of America","lat":"38.581021","lng":"-121.4939328"}},{"city":"Saratoga Springs","country":"United States","state":"NY","region":"North America","geo_point":{"address":"Saratoga Springs, NY, United States of America","lat":"43.0822","lng":"-73.7854"}},{"city":"Grapevine","country":"United States","state":"TX","region":"North America","geo_point":{"address":"Grapevine, TX, United States of America","lat":"32.9343","lng":"-97.0781"}},{"city":"Nashville","country":"United States","state":"TN","region":"North America","geo_point":{"address":"Nashville, TN, United States of America","lat":"36.1622","lng":"-86.7744"}},{"city":"Frostburg","country":"United States","state":"MD","region":"North America","geo_point":{"address":"Frostburg, MD, United States of America","lat":"39.6581","lng":"-78.9284"}}]},{"name":"Aspect","id":485,"value_proposition":"Contact center software solutions and services that enable businesses to manage and optimize customer communications.","group":"Former","date_exited":"05/14/2019","industry_vertical":"Telecom","logo":"http://localhost/wp-content/uploads/2019/05/Aspect.svg","date_aquired":"01/14/2003","add_on_companies":false,"hq_location":{"city":"Phoenix","country":"United States","state":"AZ","region":"North America","geo_point":{"address":"Phoenix, AZ, United States of America","lat":"33.4486","lng":"-112.0773"}},"other_locations":[{"city":"San Jose","country":"United States","state":"CA","region":"North America","geo_point":{"address":"San Jose, CA, United States of America","lat":"37.2751","lng":"-121.8261"}}]},{"name":"Aptean","id":484,"value_proposition":"Global provider of B2B enterprise solutions including Business Applications, IT Support, and Supply Chain software that is tailored to select industries.","group":"Former","industry_vertical":"Horizontal","logo":"http://localhost/wp-content/uploads/2019/05/Aptean.svg","date_aquired":"04/11/2012","add_on_companies":[{"name":"IndustryBuilt","acquisition_date":"03/08/2018"},{"name":"TheySay","acquisition_date":"01/03/2018"},{"name":"Jurisdiction Online","acquisition_date":"12/21/2017"},{"name":"Connect Clinical Link","acquisition_date":"12/01/2017"},{"name":"FDM","acquisition_date":"06/05/2017"},{"name":"Apprise","acquisition_date":"05/16/2017"},{"name":"irms|360 Enterprise","acquisition_date":"02/23/2017"},{"name":"GQ Lifesciences","acquisition_date":"10/03/2016"},{"name":"Government and Enterprise Management Solutions","acquisition_date":"08/08/2016"},{"name":"Advanced Public Safety","acquisition_date":"06/08/2016"},{"name":"AssetPoint","acquisition_date":"12/31/2015"},{"name":"Computron","acquisition_date":"12/04/2015"},{"name":"Medworxx","acquisition_date":"10/15/2015"},{"name":"CoreTrac","acquisition_date":"10/01/2015"},{"name":"Vision Information Logistics","acquisition_date":"06/15/2015"},{"name":"Productivity Pack","acquisition_date":"06/11/2015"},{"name":"Verdiem","acquisition_date":"01/02/2015"},{"name":"Consona Corporation","acquisition_date":"08/06/2012"}],"date_exited":"10/26/2018","hq_location":{"city":"Atlanta","country":"United States","state":"GA","region":"North America","geo_point":{"address":"Atlanta, GA, United States of America","lat":"33.7491","lng":"-84.3902"}},"other_locations":[{"city":"Antwerp","country":"Belgium","state":"","region":"Europe","geo_point":{"address":"Antwerp, Belgium","lat":"51.2206","lng":"4.3997"}},{"city":"Bengaluru","country":"India","state":"","region":"Asia Pacific","geo_point":{"address":"Bengaluru, India","lat":"12.96991","lng":"77.59796"}},{"city":"Barcelona","country":"Spain","state":"","region":"Europe","geo_point":{"address":"Barcelona, Spain","lat":"41.3825","lng":"2.17694"}},{"city":"Bethlehem","country":"United States","state":"PA","region":"North America","geo_point":{"address":"Bethlehem, PA, United States of America","lat":"40.6179","lng":"-75.3787"}},{"city":"Bruno","country":"Czechia","state":"","region":"Europe","geo_point":{"address":"Bruno, Czechia","lat":"49.19528","lng":"16.60833"}},{"city":"Chicago","country":"United States","state":"IL","region":"North America","geo_point":{"address":"Chicago, IL, United States of America","lat":"41.8756","lng":"-87.6244"}},{"city":"Greenville","country":"United States","state":"SC","region":"North America","geo_point":{"address":"Greenville, SC, United States of America","lat":"34.8514","lng":"-82.3985"}},{"city":"Haifa","country":"Israel","state":"","region":"Middle East","geo_point":{"address":"Haifa, Israel","lat":"32.797304","lng":"35.005214"}},{"city":"Indianapolis","country":"United States","state":"IN","region":"North America","geo_point":{"address":"Indianapolis, IN, United States of America","lat":"39.7683","lng":"-86.1584"}},{"city":"Milwaukee","country":"United States","state":"WI","region":"North America","geo_point":{"address":"Milwaukee, WI, United States of America","lat":"43.0115","lng":"-87.9735"}},{"city":"Northampton","country":"United Kingdom","state":"","region":"Europe","geo_point":{"address":"Northampton, United Kingdom","lat":"52.23333","lng":"-0.9"}},{"city":"Paris","country":"France","state":"","region":"Europe","geo_point":{"address":"Paris, France","lat":"48.859489","lng":"2.320582"}},{"city":"Shenzhen","country":"China","state":"","region":"Asia Pacific","geo_point":{"address":"Shenzhen, China","lat":"22.535383","lng":"114.05471"}},{"city":"Toronto","country":"Canada","state":"","region":"North America","geo_point":{"address":"Toronto, Canada","lat":"43.6529","lng":"-79.3849"}},{"city":"Utrecht","country":"Netherlands","state":"","region":"Europe","geo_point":{"address":"Utrecht, Netherlands","lat":"52.08889","lng":"5.11556"}},{"city":"Nanjing","country":"China","state":null,"region":"Asia Pacific","geo_point":{"address":"Nanjing, Jiangsu, China","lat":"32.060255","lng":"118.796877"}}]},{"name":"Applied Systems","id":483,"value_proposition":"Automation solutions for the property and casualty insurance industry.","group":"Former","date_exited":"05/14/2019","industry_vertical":"Insurance","logo":"http://localhost/wp-content/uploads/2019/05/Applied-Systems.svg","date_aquired":"09/15/2004","add_on_companies":false,"hq_location":{"city":"University Park","country":"United States","state":"IL","region":"North America","geo_point":{"address":"University Park, IL, United States of America","lat":"41.4467655","lng":"-87.7456445"}},"other_locations":[{"city":"Lincoln","country":"United States","state":"NE","region":"North America","geo_point":{"address":"Lincoln, NE, United States of America","lat":"40.8001","lng":"-96.6674"}},{"city":"Windsor","country":"United States","state":"CT","region":"North America","geo_point":{"address":"Windsor, CT, United States of America","lat":"41.8526","lng":"-72.6437"}},{"city":"Phoenix","country":"United States","state":"AZ","region":"North America","geo_point":{"address":"Phoenix, AZ, United States of America","lat":"33.4486","lng":"-112.0773"}},{"city":"Tampa","country":"United States","state":"FL","region":"North America","geo_point":{"address":"Tampa, FL, United States of America","lat":"27.9478","lng":"-82.4584"}},{"city":"Milford","country":"United States","state":"OH","region":"North America","geo_point":{"address":"Milford, OH, United States of America","lat":"39.1746","lng":"-84.2959"}},{"city":"Atlanta","country":"United States","state":"GA","region":"North America","geo_point":{"address":"Atlanta, GA, United States of America","lat":"33.7491","lng":"-84.3902"}},{"city":"Austin","country":"United States","state":"TX","region":"North America","geo_point":{"address":"Austin, TX, United States of America","lat":"30.2711","lng":"-97.7437"}}]},{"name":"Applause","id":482,"value_proposition":"SaaS-based platform that helps clients optimize the quality and end-user experience on desktop, mobile, and device apps.","group":"Current","industry_vertical":"Horizontal","logo":"http://localhost/wp-content/uploads/2019/05/Applause.svg","date_aquired":"09/20/2017","add_on_companies":false,"date_exited":"","hq_location":{"city":"Framingham","country":"United States","state":"MA","region":"North America","geo_point":{"address":"Framingham, MA, United States of America","lat":"42.2793","lng":"-71.4162"}},"other_locations":[{"city":"Boston","country":"United States","state":"MA","region":"North America","geo_point":{"address":"Boston, MA, United States of America","lat":"42.3605","lng":"-71.0596"}},{"city":"San Mateo","country":"United States","state":"CA","region":"North America","geo_point":{"address":"San Mateo, CA, United States of America","lat":"37.5446","lng":"-122.3091"}},{"city":"Austin","country":"United States","state":"TX","region":"North America","geo_point":{"address":"Austin, TX, United States of America","lat":"30.2711","lng":"-97.7437"}},{"city":"Bellevue","country":"United States","state":"WA","region":"North America","geo_point":{"address":"Bellevue, WA, United States of America","lat":"47.6144","lng":"-122.1923"}},{"city":"Herzliya","country":"Israel","state":"","region":"Middle East","geo_point":{"address":"Herzliya, Israel","lat":"32.1656255584118","lng":"34.8469022847712"}},{"city":"Hitech City","country":"India","state":"","region":"Asia Pacific","geo_point":{"address":"Hitech City, India","lat":"17.44","lng":"78.3812"}},{"city":"Berlin","country":"Germany","state":"","region":"Europe","geo_point":{"address":"Berlin, Germany","lat":"52.504043","lng":"13.393236"}},{"city":"Warsaw","country":"Poland","state":"","region":"Europe","geo_point":{"address":"Warsaw, Poland","lat":"52.21667","lng":"21.03333"}}]},{"name":"Allocate Software","id":481,"value_proposition":"Workforce optimization and compliance software for the healthcare industry.","group":"Current","industry_vertical":"Healthcare","logo":"http://localhost/wp-content/uploads/2019/05/Allocate-Software.svg","date_aquired":"05/16/2018","add_on_companies":[{"name":"Wambiz","acquisition_date":"10/31/2018"},{"name":"247 Time","acquisition_date":"11/30/2018"}],"date_exited":"","hq_location":{"city":"Richmond","country":"United Kingdom","state":"","region":"Europe","geo_point":{"address":"Richmond, United Kingdom","lat":"51.4713296","lng":"-0.3876112"}},"other_locations":[{"city":"Gif sur Yvette","country":"France","state":"","region":"Europe","geo_point":{"address":"Gif sur Yvette, France","lat":"48.70139","lng":"2.13361"}},{"city":"Skopje","country":"Macedonia","state":"","region":"Europe","geo_point":{"address":"Skopje, Macedonia","lat":"42.008509","lng":"21.360685"}},{"city":"Madrid","country":"Spain","state":"","region":"Europe","geo_point":{"address":"Madrid, Spain","lat":"40.41889","lng":"-3.69194"}},{"city":"Göteborg","country":"Sweden","state":"","region":"Europe","geo_point":{"address":"Göteborg, Sweden","lat":"57.70694","lng":"11.96667"}},{"city":"Stockholm","country":"Sweden","state":"","region":"Europe","geo_point":{"address":"Stockholm, Sweden","lat":"59.32944","lng":"18.06861"}},{"city":"Stoke-on-Trent","country":"United Kingdom","state":"","region":"Europe","geo_point":{"address":"Stoke-on-Trent, United Kingdom","lat":"52.3025","lng":"-2.0648"}}]},{"name":"Alegeus Technologies","id":480,"value_proposition":"Leading provider of consumer directed healthcare software solutions.","group":"Current","industry_vertical":"Healthcare","logo":"http://localhost/wp-content/uploads/2019/05/Alegeus-Technologies.svg","date_aquired":"09/05/2018","add_on_companies":false,"date_exited":"","hq_location":{"city":"Waltham","country":"United States","state":"MA","region":"North America","geo_point":{"address":"Waltham, MA, United States of America","lat":"42.3756","lng":"-71.2358"}},"other_locations":[{"city":"Maitland","country":"United States","state":"FL","region":"North America","geo_point":{"address":"Maitland, FL, United States of America","lat":"28.6275","lng":"-81.3656"}},{"city":"Milwaukee","country":"United States","state":"WI","region":"North America","geo_point":{"address":"Milwaukee, WI, United States of America","lat":"43.0115","lng":"-87.9735"}}]},{"name":"Advicent","id":479,"value_proposition":"SaaS-based technology solutions for the financial advice and planning industry.","group":"Current","industry_vertical":"Financial Services","logo":"http://localhost/wp-content/uploads/2019/05/Advicent.svg","date_aquired":"11/10/2011","add_on_companies":[{"name":"Figlo","acquisition_date":"09/23/2014"}],"date_exited":"","hq_location":{"city":"Milwaukee","country":"United States","state":"WI","region":"North America","geo_point":{"address":"Milwaukee, WI, United States of America","lat":"43.0115","lng":"-87.9735"}},"other_locations":[{"city":"Capelle aan den Ijssel","country":"Netherlands","state":"","region":"Europe","geo_point":{"address":"Capelle aan den Ijssel, Netherlands","lat":"51.937129","lng":"4.588111"}},{"city":"Zwolle","country":"Netherlands","state":"","region":"Europe","geo_point":{"address":"Zwolle, Netherlands","lat":"52.51667","lng":"6.1"}}]},{"name":"Advanced","id":478,"value_proposition":"Healthcare, ERP, and other business solutions and services for the public and private sectors in the United Kingdom.","group":"Current","industry_vertical":"Horizontal","logo":"http://localhost/wp-content/uploads/2019/05/Advanced.svg","date_aquired":"03/19/2015","add_on_companies":[{"name":"Docman","acquisition_date":"06/28/2018"},{"name":"Information Balance","acquisition_date":"03/19/2018"},{"name":"Science Warehouse","acquisition_date":"03/01/2018"},{"name":"Hudman Solutions","acquisition_date":"07/01/2017"}],"date_exited":"","hq_location":{"city":"Slough","country":"United Kingdom","state":"","region":"Europe","geo_point":{"address":"Slough, United Kingdom","lat":"51.5069993","lng":"-0.6451444"}},"other_locations":[{"city":"Dublin","country":"Ireland","state":"","region":"Europe","geo_point":{"address":"Dublin, Ireland","lat":"53.34929607","lng":"-6.26036167"}},{"city":"Aberdeen","country":"United Kingdom","state":"","region":"Europe","geo_point":{"address":"Aberdeen, United Kingdom","lat":"57.15","lng":"-2.1"}},{"city":"Belfast","country":"United Kingdom","state":"","region":"Europe","geo_point":{"address":"Belfast, United Kingdom","lat":"54.59667","lng":"-5.93833"}},{"city":"Birmingham","country":"United Kingdom","state":"","region":"Europe","geo_point":{"address":"Birmingham, United Kingdom","lat":"52.48333","lng":"-1.9"}},{"city":"Bristol","country":"United Kingdom","state":"","region":"Europe","geo_point":{"address":"Bristol, United Kingdom","lat":"51.45","lng":"-2.58333"}},{"city":"Buckinghamshire","country":"United Kingdom","state":"","region":"Europe","geo_point":{"address":"Buckinghamshire, United Kingdom","lat":"52.0062782","lng":"-1.0029484"}},{"city":"Knutsford","country":"United Kingdom","state":"","region":"Europe","geo_point":{"address":"Knutsford, United Kingdom","lat":"53.3003863","lng":"-2.3906804"}},{"city":"Derby","country":"United Kingdom","state":"","region":"Europe","geo_point":{"address":"Derby, United Kingdom","lat":"52.91667","lng":"-1.46667"}},{"city":"Barnstaple","country":"United Kingdom","state":"","region":"Europe","geo_point":{"address":"Barnstaple, United Kingdom","lat":"51.0818338","lng":"-4.0933905"}},{"city":"Poole","country":"United Kingdom","state":"","region":"Europe","geo_point":{"address":"Poole, United Kingdom","lat":"50.7230521","lng":"-2.043091"}},{"city":"Hull","country":"United Kingdom","state":"","region":"Europe","geo_point":{"address":"Hull, United Kingdom","lat":"53.74433","lng":"-0.3325"}},{"city":"Gateshead","country":"United Kingdom","state":"","region":"Europe","geo_point":{"address":"Gateshead, United Kingdom","lat":"54.95","lng":"-1.6"}},{"city":"Ashford","country":"United Kingdom","state":"","region":"Europe","geo_point":{"address":"Ashford, United Kingdom","lat":"51.1535314","lng":"0.8362617"}},{"city":"London","country":"United Kingdom","state":"","region":"Europe","geo_point":{"address":"London, United Kingdom","lat":"51.50722","lng":"-0.1275"}},{"city":"Lincoln","country":"United Kingdom","state":"","region":"Europe","geo_point":{"address":"Lincoln, United Kingdom","lat":"53.2183421","lng":"-0.5905158"}},{"city":"Manchester","country":"United Kingdom","state":"","region":"Europe","geo_point":{"address":"Manchester, United Kingdom","lat":"53.46667","lng":"-2.23333"}},{"city":"Taunton","country":"United Kingdom","state":"","region":"Europe","geo_point":{"address":"Taunton, United Kingdom","lat":"51.021485","lng":"-3.1349584"}},{"city":"Stoke-on-Trent","country":"United Kingdom","state":"","region":"Europe","geo_point":{"address":"Stoke-on-Trent, United Kingdom","lat":"52.3025","lng":"-2.0648"}},{"city":"Northampton","country":"United Kingdom","state":"","region":"Europe","geo_point":{"address":"Northampton, United Kingdom","lat":"52.23333","lng":"-0.9"}},{"city":"Bengaluru","country":"India","state":"","region":"Asia Pacific","geo_point":{"address":"Bengaluru, India","lat":"12.96991","lng":"77.59796"}},{"city":"Gandhinagar","country":"India","state":"","region":"Asia Pacific","geo_point":{"address":"Gandhinagar, India","lat":"23.22","lng":"72.68"}},{"city":"Vadodara","country":"India","state":"","region":"Asia Pacific","geo_point":{"address":"Vadodara, India","lat":"22.3","lng":"73.2"}},{"city":"Atlanta","country":"United States","state":"GA","region":"North America","geo_point":{"address":"Atlanta, GA, United States of America","lat":"33.7491","lng":"-84.3902"}}]},{"name":"Active Network","id":477,"value_proposition":"Activity and participant management solutions for event and activity organizers.","group":"Former","date_exited":"05/14/2019","industry_vertical":"Sports, Media & Entertainment","logo":"http://localhost/wp-content/uploads/2019/05/Active-Network.svg","date_aquired":"11/15/2013","add_on_companies":[{"name":"TeamPages","acquisition_date":"04/11/2017"},{"name":"Maximum Solutions","acquisition_date":"12/28/2016"},{"name":"JumpForward","acquisition_date":"05/26/2016"},{"name":"Virtual Event Bags","acquisition_date":"11/30/2015"},{"name":"IPICO Sports","acquisition_date":"02/09/2015"}],"hq_location":{"city":"Dallas","country":"United States","state":"TX","region":"North America","geo_point":{"address":"Dallas, TX, United States of America","lat":"32.7763","lng":"-96.7969"}},"other_locations":[{"city":"Edina","country":"United States","state":"MN","region":"North America","geo_point":{"address":"Edina, MN, United States of America","lat":"44.8897","lng":"-93.3501"}},{"city":"Chicago","country":"United States","state":"IL","region":"North America","geo_point":{"address":"Chicago, IL, United States of America","lat":"41.8756","lng":"-87.6244"}}]},{"name":"Accruent","id":476,"value_proposition":"Real estate performance management solutions to manage the real estate and facilities lifecycle, including site selection, lease administration and maintenance for stores, branches, corporate offices, and educational facilities.","group":"Former","date_exited":"05/14/2019","industry_vertical":"Real Estate","logo":"http://localhost/wp-content/uploads/2019/05/Accruent.svg","date_aquired":"12/23/2009","add_on_companies":[{"name":"Mainspring Health","acquisition_date":"04/08/2016"},{"name":"VFA, Inc.","acquisition_date":"11/17/2014"},{"name":"Four Rivers","acquisition_date":"08/25/2014"},{"name":"SiteFM","acquisition_date":"08/25/2014"},{"name":"Expesite","acquisition_date":"12/18/2012"},{"name":"Evoco","acquisition_date":"12/07/2012"},{"name":"360Facility","acquisition_date":"12/01/2011"},{"name":"Siterra","acquisition_date":"02/24/2011"}],"hq_location":{"city":"Austin","country":"United States","state":"TX","region":"North America","geo_point":{"address":"Austin, TX, United States of America","lat":"30.2711","lng":"-97.7437"}},"other_locations":[{"city":"La Jolla","country":"United States","state":"CA","region":"North America","geo_point":{"address":"La Jolla, CA, United States of America","lat":"32.8473","lng":"-117.2742"}},{"city":"New Orleans","country":"United States","state":"LA","region":"North America","geo_point":{"address":"New Orleans, LA, United States of America","lat":"29.9499","lng":"-90.0701"}},{"city":"Plano","country":"United States","state":"TX","region":"North America","geo_point":{"address":"Plano, TX, United States of America","lat":"33.0137","lng":"-96.6925"}},{"city":"Davis","country":"United States","state":"CA","region":"North America","geo_point":{"address":"Davis, CA, United States of America","lat":"38.5454","lng":"-121.7446"}},{"city":"Denver","country":"United States","state":"CO","region":"North America","geo_point":{"address":"Denver, CO, United States of America","lat":"39.7348","lng":"-104.9653"}},{"city":"Boston","country":"United States","state":"MA","region":"North America","geo_point":{"address":"Boston, MA, United States of America","lat":"42.3605","lng":"-71.0596"}},{"city":"Minneapolis","country":"United States","state":"MN","region":"North America","geo_point":{"address":"Minneapolis, MN, United States of America","lat":"44.9773","lng":"-93.2655"}}]},{"name":"AGDATA","id":475,"value_proposition":"Strategic data and analytics solutions for agricultural, crop protection, and animal health manufacturers.","group":"Current","industry_vertical":"Agriculture","logo":"http://localhost/wp-content/uploads/2019/05/AGDATA.svg","date_aquired":"07/25/2014","add_on_companies":[{"name":"Focus Technology Group","acquisition_date":"04/01/2016"},{"name":"Peppers & Rogers Group","acquisition_date":"03/01/2015"}],"date_exited":"","hq_location":{"city":"Charlotte","country":"United States","state":"NC","region":"North America","geo_point":{"address":"Charlotte, NC, United States of America","lat":"35.2271","lng":"-80.8431"}},"other_locations":[{"city":"Cambridge","country":"Canada","state":"","region":"North America","geo_point":{"address":"Cambridge, Canada","lat":"43.3843","lng":"-80.3098"}},{"city":"Mason City","country":"United States","state":"IA","region":"North America","geo_point":{"address":"Mason City, IA, United States of America","lat":"43.1536","lng":"-93.201"}}]},{"name":"Zywave","id":180,"value_proposition":"SaaS enterprise automation solutions for the employee benefits and property and casualty insurance brokerage industry.","group":"Former","date_exited":"05/23/2019","industry_vertical":"Insurance","logo":"http://localhost/wp-content/uploads/2019/05/Zywave.svg","date_aquired":"11/10/2008","add_on_companies":[{"name":"EISI","acquisition_date":"11/10/2011"},{"name":"Specific Software","acquisition_date":"09/30/2010"}],"hq_location":{"city":"Milwaukee","country":"United States","state":"WI","region":"North America","geo_point":{"address":"Milwaukee, WI, United States of America","lat":"43.0115","lng":"-87.9735"}},"other_locations":[]},{"name":"Zapproved","id":179,"value_proposition":"Market leader in enterprise legal hold and e-discovery software for the Global 2000 legal departments.","group":"Current","industry_vertical":"Legal","logo":"http://localhost/wp-content/uploads/2019/05/Zapproved.svg","date_aquired":"05/16/2017","add_on_companies":false,"date_exited":"","hq_location":{"city":"Portland","country":"United States","state":"OR","region":"North America","geo_point":{"address":"Portland, OR, United States of America","lat":"45.5202","lng":"-122.6742"}},"other_locations":[]},{"name":"YouEarnedIt","id":178,"value_proposition":"Employee experience and performance platform to drive engagement and business results.","group":"Current","industry_vertical":"HR & Recruiting","logo":"http://localhost/wp-content/uploads/2019/05/YouEarnedIt.svg","date_aquired":"04/04/2018","add_on_companies":[{"name":"HighGround","acquisition_date":"07/19/2018"}],"date_exited":"","hq_location":{"city":"Austin","country":"United States","state":"TX","region":"North America","geo_point":{"address":"Austin, TX, United States of America","lat":"30.2711","lng":"-97.7437"}},"other_locations":[]},{"name":"Xactly","id":177,"value_proposition":"Cloud-based incentive compensation solutions for employee and sales performance management.","group":"Current","industry_vertical":"Sales & Marketing","logo":"http://localhost/wp-content/uploads/2019/05/Xactly.svg","date_aquired":"07/31/2017","add_on_companies":[{"name":"Obero","acquisition_date":"02/14/2018"},{"name":"AlignStar","acquisition_date":"08/01/2017"}],"date_exited":"","hq_location":{"city":"San Jose","country":"United States","state":"CA","region":"North America","geo_point":{"address":"San Jose, CA, United States of America","lat":"37.2751","lng":"-121.8261"}},"other_locations":[{"city":"Concord","country":"Canada","state":"","region":"North America","geo_point":{"address":"Concord, Canada","lat":"45.4528","lng":"-62.7905"}},{"city":"Bedford","country":"United States","state":"MA","region":"North America","geo_point":{"address":"Bedford, MA, United States of America","lat":"42.4917","lng":"-71.2818"}},{"city":"Denver","country":"United States","state":"CO","region":"North America","geo_point":{"address":"Denver, CO, United States of America","lat":"39.7348","lng":"-104.9653"}},{"city":"Washington","country":"United States","state":"D.C.","region":"North America","geo_point":{"address":"Washington, D.C., United States of America","lat":"38.8973392","lng":"-77.0386857"}},{"city":"London","country":"United Kingdom","state":"","region":"Europe","geo_point":{"address":"London, United Kingdom","lat":"51.50722","lng":"-0.1275"}}]},{"name":"Websense","id":176,"value_proposition":"Integrated security solutions, including web security, email security, and data security software.","group":"Former","date_exited":"05/23/2019","industry_vertical":"Security","logo":"http://localhost/wp-content/uploads/2019/05/Websense.svg","date_aquired":"06/25/2013","add_on_companies":false,"hq_location":{"city":"Austin","country":"United States","state":"TX","region":"North America","geo_point":{"address":"Austin, TX, United States of America","lat":"30.2711","lng":"-97.7437"}},"other_locations":[{"city":"San Diego","country":"United States","state":"CA","region":"North America","geo_point":{"address":"San Diego, CA, United States of America","lat":"32.7174","lng":"-117.1628"}}]},{"name":"Vivid Seats","id":175,"value_proposition":"Independent, full-service secondary ticket marketplace for live sports, concert, and theater events.","group":"Current","industry_vertical":"Sports, Media & Entertainment","logo":"http://localhost/wp-content/uploads/2019/05/Vivid-Seats.svg","date_aquired":"03/01/2016","add_on_companies":false,"date_exited":"","hq_location":{"city":"Chicago","country":"United States","state":"IL","region":"North America","geo_point":{"address":"Chicago, IL, United States of America","lat":"41.8756","lng":"-87.6244"}},"other_locations":[]},{"name":"Vista","id":174,"value_proposition":"undefined","group":"Current","industry_vertical":"All","logo":"http://localhost/wp-content/uploads/2019/04/Screenshot-2019-03-25-at-12.50.21.png","date_aquired":"02/01/2000","add_on_companies":false,"date_exited":"","hq_location":{"city":"Austin","country":"United States","state":"TX","region":"North America","geo_point":{"address":"Austin, TX, United States of America","lat":"30.2711","lng":"-97.7437"}},"other_locations":[{"city":"queretaro","country":"Mexico","state":null,"region":"North America","geo_point":{"address":"Querétaro, Qro., Mexico","lat":"20.58879319999999","lng":"-100.38988810000001"}},{"city":"tijuana","country":"Mexico","state":null,"region":"Asia Pacific","geo_point":{"address":"Tijuana, Baja California, Mexico","lat":"32.5149469","lng":"-117.03824710000004"}}]},{"name":"Vertafore","id":173,"value_proposition":"Agency management, compliance, workflow, and data solutions for the Property and Casualty insurance broker and carrier market.","group":"Current","industry_vertical":"Insurance","logo":"http://localhost/wp-content/uploads/2019/05/Vertafore.svg","date_aquired":"06/30/2016","add_on_companies":[{"name":"RiskMatch","acquisition_date":"04/20/2017"}],"date_exited":"","hq_location":{"city":"Denver","country":"United States","state":"CO","region":"North America","geo_point":{"address":"Denver, CO, United States of America","lat":"39.7348","lng":"-104.9653"}},"other_locations":[{"city":"Concord","country":"Canada","state":"","region":"North America","geo_point":{"address":"Concord, Canada","lat":"45.4528","lng":"-62.7905"}},{"city":"Grand Falls","country":"Canada","state":"","region":"North America","geo_point":{"address":"Grand Falls, Canada","lat":"47.0463","lng":"-67.7394"}},{"city":"Montreal","country":"Canada","state":"","region":"North America","geo_point":{"address":"Montreal, Canada","lat":"45.5088","lng":"-73.554"}},{"city":"Woodland Hills","country":"United States","state":"CA","region":"North America","geo_point":{"address":"Woodland Hills, CA, United States of America","lat":"34.1683","lng":"-118.6059"}},{"city":"Westminster","country":"United States","state":"CO","region":"North America","geo_point":{"address":"Westminster, CO, United States of America","lat":"39.8367","lng":"-105.0372"}},{"city":"Deerfield Beach","country":"United States","state":"FL","region":"North America","geo_point":{"address":"Deerfield Beach, FL, United States of America","lat":"42.1711","lng":"-87.8445"}},{"city":"Tampa","country":"United States","state":"FL","region":"North America","geo_point":{"address":"Tampa, FL, United States of America","lat":"27.9478","lng":"-82.4584"}},{"city":"Greenwich","country":"United States","state":"CT","region":"North America","geo_point":{"address":"Greenwich, CT, United States of America","lat":"41.0265","lng":"-73.6285"}},{"city":"Atlanta","country":"United States","state":"GA","region":"North America","geo_point":{"address":"Atlanta, GA, United States of America","lat":"33.7491","lng":"-84.3902"}},{"city":"Indianapolis","country":"United States","state":"IN","region":"North America","geo_point":{"address":"Indianapolis, IN, United States of America","lat":"39.7683","lng":"-86.1584"}},{"city":"Windsor","country":"United States","state":"CT","region":"North America","geo_point":{"address":"Windsor, CT, United States of America","lat":"41.8526","lng":"-72.6437"}},{"city":"East Lansing","country":"United States","state":"MI","region":"North America","geo_point":{"address":"East Lansing, MI, United States of America","lat":"42.7355","lng":"-84.4852"}},{"city":"New York","country":"United States","state":"NY","region":"North America","geo_point":{"address":"New York, NY, United States of America","lat":"40.7648","lng":"-73.9808"}},{"city":"Pulaski","country":"United States","state":"TN","region":"North America","geo_point":{"address":"Pulaski, TN, United States of America","lat":"35.1998","lng":"-87.0308"}},{"city":"Bothell","country":"United States","state":"WA","region":"North America","geo_point":{"address":"Bothell, WA, United States of America","lat":"47.7599","lng":"-122.2068"}}]},{"name":"Ventyx","id":172,"value_proposition":"Software solutions, data, and related services for optimizing the operational and financial performance of energy, utility, and other asset-intensive businesses.","group":"Former","date_exited":"05/23/2019","industry_vertical":"Energy","logo":"http://localhost/wp-content/uploads/2019/05/Ventyx.svg","date_aquired":"09/22/2005","add_on_companies":[{"name":"Structure Group","acquisition_date":"06/30/2009"},{"name":"Tech Assist","acquisition_date":"02/14/2008"},{"name":"New Energy Associates","acquisition_date":"08/27/2007"},{"name":"Global Energy Decisions","acquisition_date":"06/08/2007"},{"name":"Indus","acquisition_date":"01/09/2007"}],"hq_location":{"city":"Atlanta","country":"United States","state":"GA","region":"North America","geo_point":{"address":"Atlanta, GA, United States of America","lat":"33.7491","lng":"-84.3902"}},"other_locations":[]},{"name":"Upserve","id":171,"value_proposition":"Cloud-based point of sale, payment, and analytics solutions for restaurant management.","group":"Current","industry_vertical":"Hospitality","logo":"http://localhost/wp-content/uploads/2019/05/Upserve.svg","date_aquired":"07/14/2017","add_on_companies":[{"name":"SimpleOrder","acquisition_date":"07/12/2018"}],"date_exited":"","hq_location":{"city":"Providence","country":"United States","state":"RI","region":"North America","geo_point":{"address":"Providence, RI, United States of America","lat":"41.824","lng":"-71.4128"}},"other_locations":[]},{"name":"Trintech","id":170,"value_proposition":"Integrated record-to-report software solutions that help businesses expedite and manage the financial close process.","group":"Current","industry_vertical":"Horizontal","logo":"http://localhost/wp-content/uploads/2019/05/Trintech.svg","date_aquired":"10/01/2015","add_on_companies":[{"name":"Adra","acquisition_date":"10/31/2017"},{"name":"Chesapeake System Solutions","acquisition_date":"05/02/2016"}],"date_exited":"","hq_location":{"city":"Addison","country":"United States","state":"TX","region":"North America","geo_point":{"address":"Addison, TX, United States of America","lat":"32.9618","lng":"-96.8292"}},"other_locations":[{"city":"Owings Mills","country":"United States","state":"MD","region":"North America","geo_point":{"address":"Owings Mills, MD, United States of America","lat":"39.4011","lng":"-76.7963"}},{"city":"Copenhagen","country":"Denmark","state":"","region":"Europe","geo_point":{"address":"Copenhagen, Denmark","lat":"55.67611","lng":"12.56889"}},{"city":"Paris","country":"France","state":"","region":"Europe","geo_point":{"address":"Paris, France","lat":"48.859489","lng":"2.320582"}},{"city":"Frankfurt","country":"Germany","state":"","region":"Europe","geo_point":{"address":"Frankfurt, Germany","lat":"50.11361","lng":"8.67972"}},{"city":"Dublin","country":"Ireland","state":"","region":"Europe","geo_point":{"address":"Dublin, Ireland","lat":"53.34929607","lng":"-6.26036167"}},{"city":"Amsterdam","country":"Netherlands","state":"","region":"Europe","geo_point":{"address":"Amsterdam, Netherlands","lat":"52.378","lng":"4.9"}},{"city":"Oslo","country":"Norway","state":"","region":"Europe","geo_point":{"address":"Oslo, Norway","lat":"59.972175","lng":"10.775647"}},{"city":"Stockholm","country":"Sweden","state":"","region":"Europe","geo_point":{"address":"Stockholm, Sweden","lat":"59.32944","lng":"18.06861"}},{"city":"London","country":"United Kingdom","state":"","region":"Europe","geo_point":{"address":"London, United Kingdom","lat":"51.50722","lng":"-0.1275"}},{"city":"Sydney","country":"Australia","state":"","region":"Asia Pacific","geo_point":{"address":"Sydney, Australia","lat":"-33.868","lng":"151.21"}},{"city":"Singapore","country":"Singapore","state":"","region":"Asia Pacific","geo_point":{"address":"Singapore, Singapore","lat":"1.351616","lng":"103.808053"}}]},{"name":"TransFirst","id":169,"value_proposition":"Transaction processing services and payment processing technologies.","group":"Former","date_exited":"05/23/2019","industry_vertical":"Horizontal","logo":"http://localhost/wp-content/uploads/2019/05/TransFirst.svg","date_aquired":"11/12/2014","add_on_companies":false,"hq_location":{"city":"Hauppauge","country":"United States","state":"NY","region":"North America","geo_point":{"address":"Hauppauge, NY, United States of America","lat":"40.8257","lng":"-73.2026"}},"other_locations":[]},{"name":"The Reynolds &#038; Reynolds Company","id":168,"value_proposition":"Software solutions and services to support every aspect of automotive retailing.","group":"Former","date_exited":"05/23/2019","industry_vertical":"Automotive","logo":"http://localhost/wp-content/uploads/2019/05/The-Reynolds-Reynolds-Company.svg","date_aquired":"10/26/2006","add_on_companies":false,"hq_location":{"city":"Dayton","country":"United States","state":"OH","region":"North America","geo_point":{"address":"Dayton, OH, United States of America","lat":"39.6428","lng":"-84.2866"}},"other_locations":[{"city":"Kettering","country":"United States","state":"OH","region":"North America","geo_point":{"address":"Kettering, OH, United States of America","lat":"39.6895","lng":"-84.1688"}},{"city":"Houston","country":"United States","state":"TX","region":"North America","geo_point":{"address":"Houston, TX, United States of America","lat":"29.7589","lng":"-95.3677"}},{"city":"College Station","country":"United States","state":"TX","region":"North America","geo_point":{"address":"College Station, TX, United States of America","lat":"30.6263","lng":"-96.3347"}}]},{"name":"Telarix","id":167,"value_proposition":"Interconnect and settlement software solutions for the global telecommunications industry.","group":"Current","industry_vertical":"Telecom","logo":"http://localhost/wp-content/uploads/2019/05/Telarix.svg","date_aquired":"01/14/2016","add_on_companies":[{"name":"Starhome MACH","acquisition_date":"11/20/2018"}],"date_exited":"","hq_location":{"city":"Vienna","country":"United States","state":"VA","region":"North America","geo_point":{"address":"Vienna, VA, United States of America","lat":"38.9013","lng":"-77.2652"}},"other_locations":[]},{"name":"TIBCO Software","id":166,"value_proposition":"Infrastructure and analytics software that integrates diverse systems and data sources and provides analytical insights.","group":"Current","industry_vertical":"Horizontal","logo":"http://localhost/wp-content/uploads/2019/05/TIBCO-Software.svg","date_aquired":"12/05/2014","add_on_companies":[{"name":"Scribe","acquisition_date":"06/05/2018"},{"name":"Alpine Data","acquisition_date":"11/14/2017"},{"name":"TIBCO Data Virtualization","acquisition_date":"10/31/2017"},{"name":"nanoscale.io","acquisition_date":"07/06/2017"},{"name":"Statistica","acquisition_date":"06/05/2017"},{"name":"Mashery","acquisition_date":"09/25/2015"},{"name":"Orchestra Networks","acquisition_date":"11/26/2018"}],"date_exited":"","hq_location":{"city":"Palo Alto","country":"United States","state":"CA","region":"North America","geo_point":{"address":"Palo Alto, CA, United States of America","lat":"37.4422","lng":"-122.1634"}},"other_locations":[{"city":"Montreal","country":"Canada","state":"","region":"North America","geo_point":{"address":"Montreal, Canada","lat":"45.5088","lng":"-73.554"}},{"city":"Toronto","country":"Canada","state":"","region":"North America","geo_point":{"address":"Toronto, Canada","lat":"43.6529","lng":"-79.3849"}},{"city":"Guadalajara","country":"Mexico","state":"","region":"North America","geo_point":{"address":"Guadalajara, Mexico","lat":"20.66611","lng":"-103.35194"}},{"city":"Mexico City","country":"Mexico","state":"","region":"North America","geo_point":{"address":"Mexico City, Mexico","lat":"19.41944","lng":"-99.14556"}},{"city":"Newport Beach","country":"United States","state":"CA","region":"North America","geo_point":{"address":"Newport Beach, CA, United States of America","lat":"33.617","lng":"-117.9294"}},{"city":"San Francisco","country":"United States","state":"CA","region":"North America","geo_point":{"address":"San Francisco, CA, United States of America","lat":"37.7648","lng":"-122.463"}},{"city":"Santa Monica","country":"United States","state":"CA","region":"North America","geo_point":{"address":"Santa Monica, CA, United States of America","lat":"34.0196","lng":"-118.487"}},{"city":"Atlanta","country":"United States","state":"GA","region":"North America","geo_point":{"address":"Atlanta, GA, United States of America","lat":"33.7491","lng":"-84.3902"}},{"city":"Greenwood Village","country":"United States","state":"CO","region":"North America","geo_point":{"address":"Greenwood Village, CO, United States of America","lat":"39.6172","lng":"-104.9508"}},{"city":"Meridian","country":"United States","state":"ID","region":"North America","geo_point":{"address":"Meridian, ID, United States of America","lat":"43.6086","lng":"-116.3923"}},{"city":"Boston","country":"United States","state":"MA","region":"North America","geo_point":{"address":"Boston, MA, United States of America","lat":"42.3605","lng":"-71.0596"}},{"city":"Chapel Hill","country":"United States","state":"NC","region":"North America","geo_point":{"address":"Chapel Hill, NC, United States of America","lat":"35.9132","lng":"-79.0558"}},{"city":"Naperville","country":"United States","state":"IL","region":"North America","geo_point":{"address":"Naperville, IL, United States of America","lat":"41.7729","lng":"-88.1479"}},{"city":"Garden City","country":"United States","state":"NY","region":"North America","geo_point":{"address":"Garden City, NY, United States of America","lat":"40.7266","lng":"-73.6343"}},{"city":"New York","country":"United States","state":"NY","region":"North America","geo_point":{"address":"New York, NY, United States of America","lat":"40.7648","lng":"-73.9808"}},{"city":"Hamilton","country":"United States","state":"NJ","region":"North America","geo_point":{"address":"Hamilton, NJ, United States of America","lat":"40.2273","lng":"-74.6532"}},{"city":"Waltham","country":"United States","state":"MA","region":"North America","geo_point":{"address":"Waltham, MA, United States of America","lat":"42.3756","lng":"-71.2358"}},{"city":"Dublin","country":"United States","state":"OH","region":"North America","geo_point":{"address":"Dublin, OH, United States of America","lat":"40.0992","lng":"-83.1141"}},{"city":"Tulsa","country":"United States","state":"OK","region":"North America","geo_point":{"address":"Tulsa, OK, United States of America","lat":"36.1012","lng":"-95.9251"}},{"city":"Arlington","country":"United States","state":"TX","region":"North America","geo_point":{"address":"Arlington, TX, United States of America","lat":"38.8769","lng":"-77.0893"}},{"city":"Dallas","country":"United States","state":"TX","region":"North America","geo_point":{"address":"Dallas, TX, United States of America","lat":"32.7763","lng":"-96.7969"}},{"city":"Stafford","country":"United States","state":"TX","region":"North America","geo_point":{"address":"Stafford, TX, United States of America","lat":"29.6161","lng":"-95.5577"}},{"city":"Falls Church","country":"United States","state":"VA","region":"North America","geo_point":{"address":"Falls Church, VA, United States of America","lat":"38.8823","lng":"-77.1711"}},{"city":"Seattle","country":"United States","state":"WA","region":"North America","geo_point":{"address":"Seattle, WA, United States of America","lat":"47.6038","lng":"-122.3301"}},{"city":"Reston","country":"United States","state":"VA","region":"North America","geo_point":{"address":"Reston, VA, United States of America","lat":"38.9584","lng":"-77.358"}},{"city":"Brasilia","country":"Brazil","state":"","region":"South America","geo_point":{"address":"Brasilia, Brazil","lat":"-15.7934","lng":"-47.8823"}},{"city":"Rio De Janerio","country":"Brazil","state":"","region":"South America","geo_point":{"address":"Rio De Janerio, Brazil","lat":"-22.911","lng":"-43.2094"}},{"city":"São Paulo","country":"Brazil","state":"","region":"South America","geo_point":{"address":"São Paulo, Brazil","lat":"-23.5507","lng":"-46.6334"}},{"city":"Paris","country":"France","state":"","region":"Europe","geo_point":{"address":"Paris, France","lat":"48.859489","lng":"2.320582"}},{"city":"Munich","country":"Germany","state":"","region":"Europe","geo_point":{"address":"Munich, Germany","lat":"48.13333","lng":"11.56667"}},{"city":"Dublin","country":"Ireland","state":"","region":"Europe","geo_point":{"address":"Dublin, Ireland","lat":"53.34929607","lng":"-6.26036167"}},{"city":"Milan","country":"Italy","state":"","region":"Europe","geo_point":{"address":"Milan, Italy","lat":"45.46416","lng":"9.19034"}},{"city":"Rome","country":"Italy","state":"","region":"Europe","geo_point":{"address":"Rome, Italy","lat":"41.89306","lng":"12.48278"}},{"city":"Rotterdam","country":"Netherlands","state":"","region":"Europe","geo_point":{"address":"Rotterdam, Netherlands","lat":"51.95","lng":"4.41667"}},{"city":"Warsaw","country":"Poland","state":"","region":"Europe","geo_point":{"address":"Warsaw, Poland","lat":"52.21667","lng":"21.03333"}},{"city":"Timișoara","country":"Romania","state":"","region":"Europe","geo_point":{"address":"Timișoara, Romania","lat":"45.741163","lng":"21.14655"}},{"city":"Madrid","country":"Spain","state":"","region":"Europe","geo_point":{"address":"Madrid, Spain","lat":"40.41889","lng":"-3.69194"}},{"city":"Göteborg","country":"Sweden","state":"","region":"Europe","geo_point":{"address":"Göteborg, Sweden","lat":"57.70694","lng":"11.96667"}},{"city":"London","country":"United Kingdom","state":"","region":"Europe","geo_point":{"address":"London, United Kingdom","lat":"51.50722","lng":"-0.1275"}},{"city":"Portsmouth","country":"United Kingdom","state":"","region":"Europe","geo_point":{"address":"Portsmouth, United Kingdom","lat":"50.8037","lng":"-1.0756"}},{"city":"Swindon","country":"United Kingdom","state":"","region":"Europe","geo_point":{"address":"Swindon, United Kingdom","lat":"51.55833","lng":"-1.78111"}},{"city":"Johannesburg","country":"South Africa","state":"","region":"Africa","geo_point":{"address":"Johannesburg, South Africa","lat":"-26.1633","lng":"28.0328"}},{"city":"Brisbane","country":"Australia","state":"","region":"Asia Pacific","geo_point":{"address":"Brisbane, Australia","lat":"-27.469","lng":"153.0235"}},{"city":"Melbourne","country":"Australia","state":"","region":"Asia Pacific","geo_point":{"address":"Melbourne, Australia","lat":"-37.8142","lng":"144.9632"}},{"city":"North Sydney","country":"Australia","state":"","region":"Asia Pacific","geo_point":{"address":"North Sydney, Australia","lat":"-33.8396","lng":"151.205"}},{"city":"Perth","country":"Australia","state":"","region":"Asia Pacific","geo_point":{"address":"Perth, Australia","lat":"-31.9527","lng":"115.8605"}},{"city":"New South Wales","country":"Australia","state":"","region":"Asia Pacific","geo_point":{"address":"New South Wales, Australia","lat":"-33.49","lng":"151.32"}},{"city":"Beijing","country":"China","state":"","region":"Asia Pacific","geo_point":{"address":"Beijing, China","lat":"39.905","lng":"116.39139"}},{"city":"Hong Kong","country":"China","state":"","region":"Asia Pacific","geo_point":{"address":"Hong Kong, China","lat":"22.346578","lng":"114.135442"}},{"city":"Shanghai","country":"China","state":"","region":"Asia Pacific","geo_point":{"address":"Shanghai, China","lat":"31.16667","lng":"121.46667"}},{"city":"Hyderabad","country":"India","state":"","region":"Asia Pacific","geo_point":{"address":"Hyderabad, India","lat":"17.36667","lng":"78.46667"}},{"city":"Pune","country":"India","state":"","region":"Asia Pacific","geo_point":{"address":"Pune, India","lat":"18.52361","lng":"73.84778"}},{"city":"Mumbai","country":"India","state":"","region":"Asia Pacific","geo_point":{"address":"Mumbai, India","lat":"18.96667","lng":"72.83333"}},{"city":"Jakarta","country":"Indonesia","state":"","region":"Asia Pacific","geo_point":{"address":"Jakarta, Indonesia","lat":"-6.173292","lng":"106.841036"}},{"city":"Tokyo","country":"Japan","state":"","region":"Asia Pacific","geo_point":{"address":"Tokyo, Japan","lat":"35.68","lng":"139.77"}},{"city":"Singapore","country":"Singapore","state":"","region":"Asia Pacific","geo_point":{"address":"Singapore, Singapore","lat":"1.351616","lng":"103.808053"}},{"city":"Seoul","country":"South Korea","state":"","region":"Asia Pacific","geo_point":{"address":"Seoul, South Korea","lat":"37.564771","lng":"126.939358"}},{"city":"Taipei","country":"Taiwan","state":"","region":"Asia Pacific","geo_point":{"address":"Taipei, Taiwan","lat":"25.093197","lng":"121.558442"}}]},{"name":"Surgical Information Systems","id":165,"value_proposition":"Integrated surgery management software solutions for the healthcare industry.","group":"Former","date_exited":"05/23/2019","industry_vertical":"Healthcare","logo":"http://localhost/wp-content/uploads/2019/05/Surgical-Information-Systems.svg","date_aquired":"02/09/2006","add_on_companies":[{"name":"Statcom Source Code","acquisition_date":"12/31/2008"}],"hq_location":{"city":"Alpharetta","country":"United States","state":"GA","region":"North America","geo_point":{"address":"Alpharetta, GA, United States of America","lat":"34.071","lng":"-84.2747"}},"other_locations":[]},{"name":"Sunquest","id":164,"value_proposition":"Clinical and financial software solutions for the healthcare industry.","group":"Former","date_exited":"05/23/2019","industry_vertical":"Healthcare","logo":"http://localhost/wp-content/uploads/2019/05/Sunquest.svg","date_aquired":"10/12/2007","add_on_companies":[{"name":"PowerPath","acquisition_date":"09/30/2011"},{"name":"PAML","acquisition_date":"12/31/2008"},{"name":"Anglia","acquisition_date":"11/10/2008"}],"hq_location":{"city":"Tucson","country":"United States","state":"AZ","region":"North America","geo_point":{"address":"Tucson, AZ, United States of America","lat":"32.1561235","lng":"-111.0238898"}},"other_locations":[]},{"name":"Sumtotal","id":163,"value_proposition":"Strategic human capital management software solutions including talent acquisitions, talent management, talent development, workforce management, and analytics.","group":"Former","date_exited":"05/23/2019","industry_vertical":"Horizontal","logo":"http://localhost/wp-content/uploads/2019/05/Sumtotal.svg","date_aquired":"07/21/2009","add_on_companies":[{"name":"CyberShift","acquisition_date":"07/06/2011"},{"name":"GeoLearning","acquisition_date":"12/30/2010"},{"name":"SoftScape","acquisition_date":"09/17/2010"},{"name":"Accero","acquisition_date":"01/31/2008"}],"hq_location":{"city":"Gainesville","country":"United States","state":"FL","region":"North America","geo_point":{"address":"Gainesville, FL, United States of America","lat":"29.6519","lng":"-82.3248"}},"other_locations":[{"city":"Parsippany","country":"United States","state":"NJ","region":"North America","geo_point":{"address":"Parsippany, NJ, United States of America","lat":"40.8579","lng":"-74.426"}},{"city":"Des Moines","country":"United States","state":"IA","region":"North America","geo_point":{"address":"Des Moines, IA, United States of America","lat":"41.5911","lng":"-93.6037"}},{"city":"Boston","country":"United States","state":"MA","region":"North America","geo_point":{"address":"Boston, MA, United States of America","lat":"42.3605","lng":"-71.0596"}},{"city":"Burlington","country":"United States","state":"MA","region":"North America","geo_point":{"address":"Burlington, MA, United States of America","lat":"44.4724","lng":"-73.2115"}}]},{"name":"Sovos Compliance","id":162,"value_proposition":"Tax compliance and business-to-government reporting software for businesses.","group":"Former","date_exited":"05/23/2019","industry_vertical":"Horizontal","logo":"http://localhost/wp-content/uploads/2019/05/Sovos-Compliance.svg","date_aquired":"12/17/2012","add_on_companies":[{"name":"FiscalReps","acquisition_date":"10/04/2017"},{"name":"Paperless","acquisition_date":"08/01/2017"},{"name":"Invoiceware International","acquisition_date":"07/01/2016"},{"name":"Imaging Science and Services","acquisition_date":"05/18/2015"},{"name":"ShipCompliant","acquisition_date":"04/01/2015"},{"name":"Convey Compliance","acquisition_date":"07/01/2014"},{"name":"VAT Resource","acquisition_date":"04/10/2014"}],"hq_location":{"city":"Wilmington","country":"United States","state":"MA","region":"North America","geo_point":{"address":"Wilmington, MA, United States of America","lat":"42.5465","lng":"-71.1737"}},"other_locations":[{"city":"Minnetonka","country":"United States","state":"MN","region":"North America","geo_point":{"address":"Minnetonka, MN, United States of America","lat":"44.9127","lng":"-93.4991"}},{"city":"Smyrna","country":"United States","state":"GA","region":"North America","geo_point":{"address":"Smyrna, GA, United States of America","lat":"33.884","lng":"-84.5147"}},{"city":"Boulder","country":"United States","state":"CO","region":"North America","geo_point":{"address":"Boulder, CO, United States of America","lat":"40.015","lng":"-105.2705"}}]},{"name":"SourceNet Solutions","id":161,"value_proposition":"Comprehensive business process outsourcing solutions for finance and accounting processes.","group":"Former","date_exited":"05/23/2019","industry_vertical":"Financial Services","logo":"http://localhost/wp-content/uploads/2019/05/SourceNet-Solutions.svg","date_aquired":"08/25/2000","add_on_companies":false,"hq_location":{"city":"College Station","country":"United States","state":"TX","region":"North America","geo_point":{"address":"College Station, TX, United States of America","lat":"30.6263","lng":"-96.3347"}},"other_locations":[]},{"name":"Solera","id":160,"value_proposition":"Software and information solutions for the global insurance and automotive industries.","group":"Current","industry_vertical":"Insurance","logo":"http://localhost/wp-content/uploads/2019/05/Solera.svg","date_aquired":"03/03/2016","add_on_companies":[{"name":"Colimbra","acquisition_date":"04/05/2017"},{"name":"Autodata","acquisition_date":"01/26/2017"},{"name":"TPI","acquisition_date":"08/31/2016"},{"name":"Health Digital Systems","acquisition_date":"08/26/2016"},{"name":"Auto Chilango","acquisition_date":"08/26/2016"},{"name":"Enservio","acquisition_date":"08/03/2016"},{"name":"Digidentity","acquisition_date":"06/13/2016"}],"date_exited":"","hq_location":{"city":"Westlake","country":"United States","state":"TX","region":"North America","geo_point":{"address":"Westlake, TX, United States of America","lat":"30.2421","lng":"-93.2507"}},"other_locations":[{"city":"Toronto","country":"Canada","state":"","region":"North America","geo_point":{"address":"Toronto, Canada","lat":"43.6529","lng":"-79.3849"}},{"city":"San Diego","country":"United States","state":"CA","region":"North America","geo_point":{"address":"San Diego, CA, United States of America","lat":"32.7174","lng":"-117.1628"}},{"city":"Ann Arbor","country":"United States","state":"MI","region":"North America","geo_point":{"address":"Ann Arbor, MI, United States of America","lat":"42.2682","lng":"-83.7312"}},{"city":"Las Vegas","country":"United States","state":"NV","region":"North America","geo_point":{"address":"Las Vegas, NV, United States of America","lat":"36.1663","lng":"-115.1492"}},{"city":"Portland","country":"United States","state":"OR","region":"North America","geo_point":{"address":"Portland, OR, United States of America","lat":"45.5202","lng":"-122.6742"}},{"city":"Addison","country":"United States","state":"TX","region":"North America","geo_point":{"address":"Addison, TX, United States of America","lat":"32.9618","lng":"-96.8292"}},{"city":"Dallas","country":"United States","state":"TX","region":"North America","geo_point":{"address":"Dallas, TX, United States of America","lat":"32.7763","lng":"-96.7969"}},{"city":"Brea","country":"United States","state":"CA","region":"North America","geo_point":{"address":"Brea, CA, United States of America","lat":"33.917","lng":"-117.8889"}},{"city":"Buffalo Grove","country":"United States","state":"IL","region":"North America","geo_point":{"address":"Buffalo Grove, IL, United States of America","lat":"42.14","lng":"-87.98"}},{"city":"Congers","country":"United States","state":"NY","region":"North America","geo_point":{"address":"Congers, NY, United States of America","lat":"41.1507","lng":"-73.9454"}},{"city":"Daytona Beach","country":"United States","state":"FL","region":"North America","geo_point":{"address":"Daytona Beach, FL, United States of America","lat":"29.2108","lng":"-81.0228"}},{"city":"Eagan","country":"United States","state":"MN","region":"North America","geo_point":{"address":"Eagan, MN, United States of America","lat":"44.8182","lng":"-93.1659"}},{"city":"Foothill Ranch","country":"United States","state":"CA","region":"North America","geo_point":{"address":"Foothill Ranch, CA, United States of America","lat":"33.6838","lng":"-117.6622"}},{"city":"Honolulu","country":"United States","state":"HI","region":"North America","geo_point":{"address":"Honolulu, HI, United States of America","lat":"21.3045","lng":"-157.8557"}},{"city":"Jacksonville","country":"United States","state":"FL","region":"North America","geo_point":{"address":"Jacksonville, FL, United States of America","lat":"30.3322","lng":"-81.6557"}},{"city":"Marshall","country":"United States","state":"MN","region":"North America","geo_point":{"address":"Marshall, MN, United States of America","lat":"44.4469","lng":"-95.7884"}},{"city":"Memphis","country":"United States","state":"TN","region":"North America","geo_point":{"address":"Memphis, TN, United States of America","lat":"35.149","lng":"-90.0516"}},{"city":"Milwaukie","country":"United States","state":"OR","region":"North America","geo_point":{"address":"Milwaukie, OR, United States of America","lat":"45.4454","lng":"-122.6393"}},{"city":"North Fort Myers","country":"United States","state":"FL","region":"North America","geo_point":{"address":"North Fort Myers, FL, United States of America","lat":"26.7112381","lng":"-81.9905986"}},{"city":"Orem","country":"United States","state":"UT","region":"North America","geo_point":{"address":"Orem, UT, United States of America","lat":"40.2975","lng":"-111.6945"}},{"city":"Overland Park","country":"United States","state":"KS","region":"North America","geo_point":{"address":"Overland Park, KS, United States of America","lat":"38.9822","lng":"-94.6708"}},{"city":"Paducah","country":"United States","state":"KY","region":"North America","geo_point":{"address":"Paducah, KY, United States of America","lat":"37.0834","lng":"-88.6"}},{"city":"Plymouth","country":"United States","state":"MN","region":"North America","geo_point":{"address":"Plymouth, MN, United States of America","lat":"45.02224","lng":"-93.5317225"}},{"city":"Roseville","country":"United States","state":"MN","region":"North America","geo_point":{"address":"Roseville, MN, United States of America","lat":"45.0061","lng":"-93.1566"}},{"city":"San Juan","country":"United States","state":"PR","region":"North America","geo_point":{"address":"San Juan, PR, United States of America","lat":"18.3744","lng":"-66.0571"}},{"city":"San Ramon","country":"United States","state":"CA","region":"North America","geo_point":{"address":"San Ramon, CA, United States of America","lat":"37.7799","lng":"-121.978"}},{"city":"Bogota","country":"Colombia","state":"","region":"South America","geo_point":{"address":"Bogota, Colombia","lat":"4.252428","lng":"-74.184135"}},{"city":"Vienna","country":"Austria","state":"","region":"Europe","geo_point":{"address":"Vienna, Austria","lat":"48.220954","lng":"16.372029"}},{"city":"Graz","country":"Austria","state":"","region":"Europe","geo_point":{"address":"Graz, Austria","lat":"47.06667","lng":"15.43333"}},{"city":"Klagenfurt","country":"Austria","state":"","region":"Europe","geo_point":{"address":"Klagenfurt, Austria","lat":"46.61667","lng":"14.3"}},{"city":"Brussels","country":"Belgium","state":"","region":"Europe","geo_point":{"address":"Brussels, Belgium","lat":"50.8467","lng":"4.3547"}},{"city":"Sofia","country":"Bulgaria","state":"","region":"Europe","geo_point":{"address":"Sofia, Bulgaria","lat":"42.7","lng":"23.33333"}},{"city":"Zagreb","country":"Croatia","state":"","region":"Europe","geo_point":{"address":"Zagreb, Croatia","lat":"45.8","lng":"15.95"}},{"city":"Prague","country":"Czechia","state":"","region":"Europe","geo_point":{"address":"Prague, Czechia","lat":"50.08861","lng":"14.42139"}},{"city":"Paris","country":"France","state":"","region":"Europe","geo_point":{"address":"Paris, France","lat":"48.859489","lng":"2.320582"}},{"city":"Dresden","country":"Germany","state":"","region":"Europe","geo_point":{"address":"Dresden, Germany","lat":"51.03333","lng":"13.73333"}},{"city":"Neuss","country":"Germany","state":"","region":"Europe","geo_point":{"address":"Neuss, Germany","lat":"51.20028","lng":"6.69389"}},{"city":"Unterföhring","country":"Germany","state":"","region":"Europe","geo_point":{"address":"Unterföhring, Germany","lat":"48.19167","lng":"11.65278"}},{"city":"Athens","country":"Greece","state":"","region":"Europe","geo_point":{"address":"Athens, Greece","lat":"38","lng":"23.71667"}},{"city":"Budapest","country":"Hungary","state":"","region":"Europe","geo_point":{"address":"Budapest, Hungary","lat":"47.49833","lng":"19.04083"}},{"city":"Milan","country":"Italy","state":"","region":"Europe","geo_point":{"address":"Milan, Italy","lat":"45.46416","lng":"9.19034"}},{"city":"Foggia","country":"Italy","state":"","region":"Europe","geo_point":{"address":"Foggia, Italy","lat":"41.457083","lng":"15.5159311"}},{"city":"Minturno","country":"Italy","state":"","region":"Europe","geo_point":{"address":"Minturno, Italy","lat":"41.26667","lng":"13.75"}},{"city":"Casablanca","country":"Morocco","state":"","region":"Africa","geo_point":{"address":"Casablanca, Morocco","lat":"33.59917","lng":"-7.62"}},{"city":"Barbeque Downs","country":"South Africa","state":"","region":"Africa","geo_point":{"address":"Barbeque Downs, South Africa","lat":"-26.0075452","lng":"28.0662551"}},{"city":"Istanbul","country":"Turkey","state":"","region":"Middle East","geo_point":{"address":"Istanbul, Turkey","lat":"41.008098","lng":"28.97839"}},{"city":"Richmond","country":"Australia","state":"","region":"Asia Pacific","geo_point":{"address":"Richmond, Australia","lat":"-37.823","lng":"144.998"}},{"city":"Shanghai","country":"China","state":"","region":"Asia Pacific","geo_point":{"address":"Shanghai, China","lat":"31.16667","lng":"121.46667"}},{"city":"Beijing","country":"China","state":"","region":"Asia Pacific","geo_point":{"address":"Beijing, China","lat":"39.905","lng":"116.39139"}},{"city":"New Delhi","country":"India","state":"","region":"Asia Pacific","geo_point":{"address":"New Delhi, India","lat":"28.7","lng":"77.2"}},{"city":"Kuala Lumpur","country":"Malaysia","state":"","region":"Asia Pacific","geo_point":{"address":"Kuala Lumpur, Malaysia","lat":"3.130236","lng":"101.687618"}},{"city":"Singapore","country":"Singapore","state":"","region":"Asia Pacific","geo_point":{"address":"Singapore, Singapore","lat":"1.351616","lng":"103.808053"}},{"city":"Seoul","country":"South Korea","state":"","region":"Asia Pacific","geo_point":{"address":"Seoul, South Korea","lat":"37.564771","lng":"126.939358"}},{"city":"Taipei","country":"Taiwan","state":"","region":"Asia Pacific","geo_point":{"address":"Taipei, Taiwan","lat":"25.093197","lng":"121.558442"}},{"city":"South Jordan","country":"United States","state":"UT","region":"North America","geo_point":{"address":"South Jordan, UT, United States of America","lat":"40.5622","lng":"-111.9297"}},{"city":"West Palm Beach","country":"United States","state":"FL","region":"North America","geo_point":{"address":"West Palm Beach, FL, United States of America","lat":"26.7153","lng":"-80.0534"}},{"city":"Naples","country":"Italy","state":"","region":"Europe","geo_point":{"address":"Naples, Italy","lat":"40.83333","lng":"14.25"}},{"city":"Vilnius","country":"Lithuania","state":"","region":"Europe","geo_point":{"address":"Vilnius, Lithuania","lat":"54.7000898","lng":"25.1125065"}},{"city":"Luxembourg","country":"Luxembourg","state":"","region":"Europe","geo_point":{"address":"Luxembourg, Luxembourg","lat":"49.61056","lng":"6.13278"}},{"city":"Amsterdam","country":"Netherlands","state":"","region":"Europe","geo_point":{"address":"Amsterdam, Netherlands","lat":"52.378","lng":"4.9"}},{"city":"The Hague","country":"Netherlands","state":"","region":"Europe","geo_point":{"address":"The Hague, Netherlands","lat":"52.08417","lng":"4.3175"}},{"city":"Poznań","country":"Poland","state":"","region":"Europe","geo_point":{"address":"Poznań, Poland","lat":"52.4","lng":"16.91667"}},{"city":"Warsaw","country":"Poland","state":"","region":"Europe","geo_point":{"address":"Warsaw, Poland","lat":"52.21667","lng":"21.03333"}},{"city":"Lisbon","country":"Portugal","state":"","region":"Europe","geo_point":{"address":"Lisbon, Portugal","lat":"38.71667","lng":"-9.16667"}},{"city":"Bucharest","country":"Romania","state":"","region":"Europe","geo_point":{"address":"Bucharest, Romania","lat":"44.4","lng":"26.08333"}},{"city":"Moscow","country":"Russia","state":"","region":"Europe","geo_point":{"address":"Moscow, Russia","lat":"55.75583","lng":"37.61778"}},{"city":"Barcelona","country":"Spain","state":"","region":"Europe","geo_point":{"address":"Barcelona, Spain","lat":"41.3825","lng":"2.17694"}},{"city":"Bratislava","country":"Slovakia","state":"","region":"Europe","geo_point":{"address":"Bratislava, Slovakia","lat":"48.14472","lng":"17.11278"}},{"city":"Madrid","country":"Spain","state":"","region":"Europe","geo_point":{"address":"Madrid, Spain","lat":"40.41889","lng":"-3.69194"}},{"city":"Alicante","country":"Spain","state":"","region":"Europe","geo_point":{"address":"Alicante, Spain","lat":"38.34528","lng":"-0.48306"}},{"city":"Belgrade","country":"Serbia","state":"","region":"Europe","geo_point":{"address":"Belgrade, Serbia","lat":"44.81667","lng":"20.46667"}},{"city":"Zürich","country":"Switzerland","state":"","region":"Europe","geo_point":{"address":"Zürich, Switzerland","lat":"47.37861","lng":"8.54"}},{"city":"Stansstad","country":"Switzerland","state":"","region":"Europe","geo_point":{"address":"Stansstad, Switzerland","lat":"46.98028","lng":"8.33889"}},{"city":"Kiev","country":"Ukraine","state":"","region":"Europe","geo_point":{"address":"Kiev, Ukraine","lat":"50.4501","lng":"30.5241"}},{"city":"London","country":"United Kingdom","state":"","region":"Europe","geo_point":{"address":"London, United Kingdom","lat":"51.50722","lng":"-0.1275"}},{"city":"Edinburgh","country":"United Kingdom","state":"","region":"Europe","geo_point":{"address":"Edinburgh, United Kingdom","lat":"55.95","lng":"-3.19889"}},{"city":"Harrogate","country":"United Kingdom","state":"","region":"Europe","geo_point":{"address":"Harrogate, United Kingdom","lat":"53.991","lng":"-1.539"}},{"city":"Leeds","country":"United Kingdom","state":"","region":"Europe","geo_point":{"address":"Leeds, United Kingdom","lat":"53.79972","lng":"-1.54917"}},{"city":"Rickmansworth","country":"United Kingdom","state":"","region":"Europe","geo_point":{"address":"Rickmansworth, United Kingdom","lat":"51.6383","lng":"-0.4659"}},{"city":"Salisbury","country":"United Kingdom","state":"","region":"Europe","geo_point":{"address":"Salisbury, United Kingdom","lat":"51.074","lng":"-1.7936"}},{"city":"Theale","country":"United Kingdom","state":"","region":"Europe","geo_point":{"address":"Theale, United Kingdom","lat":"51.4381","lng":"-1.0767"}}]},{"name":"Social Solutions","id":159,"value_proposition":"SaaS-based performance management and case management solutions for the human services industry.","group":"Current","industry_vertical":"Nonprofit","logo":"http://localhost/wp-content/uploads/2019/05/Social-Solutions.svg","date_aquired":"07/17/2014","add_on_companies":[{"name":"Community TechKnowledge","acquisition_date":"06/20/2015"}],"date_exited":"","hq_location":{"city":"Baltimore","country":"United States","state":"MD","region":"North America","geo_point":{"address":"Baltimore, MD, United States of America","lat":"39.2909","lng":"-76.6108"}},"other_locations":[{"city":"Austin","country":"United States","state":"TX","region":"North America","geo_point":{"address":"Austin, TX, United States of America","lat":"30.2711","lng":"-97.7437"}}]},{"name":"SirsiDynix","id":158,"value_proposition":"Software solutions and associated services for libraries of all types (academic, public, corporate, government, public, and private K-12 schools, and special education).","group":"Former","date_exited":"05/23/2019","industry_vertical":"Education","logo":"http://localhost/wp-content/uploads/2019/05/SirsiDynix.svg","date_aquired":"01/17/2007","add_on_companies":[{"name":"EOS International","acquisition_date":"10/31/2013"}],"hq_location":{"city":"Lehi","country":"United States","state":"UT","region":"North America","geo_point":{"address":"Lehi, UT, United States of America","lat":"40.3881","lng":"-111.8492"}},"other_locations":[{"city":"Carlsbad","country":"United States","state":"CA","region":"North America","geo_point":{"address":"Carlsbad, CA, United States of America","lat":"33.1581","lng":"-117.3506"}},{"city":"Taipei","country":"Taiwan","state":"","region":"Asia Pacific","geo_point":{"address":"Taipei, Taiwan","lat":"25.093197","lng":"121.558442"}}]},{"name":"SecureLink","id":157,"value_proposition":"Enterprise software platform for third-party remote support in secure, regulated industries. ","group":"Current","industry_vertical":"Security","logo":"http://localhost/wp-content/uploads/2019/05/SecureLink.svg","date_aquired":"08/15/2017","add_on_companies":false,"date_exited":"","hq_location":{"city":"Austin","country":"United States","state":"TX","region":"North America","geo_point":{"address":"Austin, TX, United States of America","lat":"30.2711","lng":"-97.7437"}},"other_locations":[]},{"name":"STATS","id":156,"value_proposition":"Provides sports data, technology, and content to broadcasters and sports media networks.","group":"Current","industry_vertical":"Sports, Media & Entertainment","logo":"http://localhost/wp-content/uploads/2019/05/STATS.svg","date_aquired":"06/06/2014","add_on_companies":[{"name":"TVTI Video Technologies","acquisition_date":"05/12/2015"},{"name":"Amisco Prozone","acquisition_date":"05/05/2015"},{"name":"Automated Insights","acquisition_date":"02/12/2015"},{"name":"The Sports Network","acquisition_date":"02/06/2015"},{"name":"Bloomberg Sports","acquisition_date":"09/04/2014"}],"date_exited":"","hq_location":{"city":"Chicago","country":"United States","state":"IL","region":"North America","geo_point":{"address":"Chicago, IL, United States of America","lat":"41.8756","lng":"-87.6244"}},"other_locations":[{"city":"Santa Monica","country":"United States","state":"CA","region":"North America","geo_point":{"address":"Santa Monica, CA, United States of America","lat":"34.0196","lng":"-118.487"}},{"city":"Northbrook","country":"United States","state":"IL","region":"North America","geo_point":{"address":"Northbrook, IL, United States of America","lat":"42.1297","lng":"-87.8305"}},{"city":"Odense","country":"Denmark","state":"","region":"Europe","geo_point":{"address":"Odense, Denmark","lat":"55.3843628","lng":"10.2577373"}},{"city":"Nice","country":"France","state":"","region":"Europe","geo_point":{"address":"Nice, France","lat":"43.70194","lng":"7.26833"}},{"city":"Düsseldorf","country":"Germany","state":"","region":"Europe","geo_point":{"address":"Düsseldorf , Germany","lat":"51.2385861","lng":"6.6742675"}},{"city":"The Hague","country":"Netherlands","state":"","region":"Europe","geo_point":{"address":"The Hague, Netherlands","lat":"52.08417","lng":"4.3175"}},{"city":"Barcelona","country":"Spain","state":"","region":"Europe","geo_point":{"address":"Barcelona, Spain","lat":"41.3825","lng":"2.17694"}},{"city":"London","country":"United Kingdom","state":"","region":"Europe","geo_point":{"address":"London, United Kingdom","lat":"51.50722","lng":"-0.1275"}},{"city":"Cape Town","country":"South Africa","state":"","region":"Africa","geo_point":{"address":"Cape Town, South Africa","lat":"-33.9351","lng":"18.4289"}},{"city":"Dubai","country":"United Arab Emirates","state":"","region":"Middle East","geo_point":{"address":"Dubai, United Arab Emirates","lat":"25.2684","lng":"55.2962"}},{"city":"Sydney","country":"Australia","state":"","region":"Asia Pacific","geo_point":{"address":"Sydney, Australia","lat":"-33.868","lng":"151.21"}},{"city":"Beijing","country":"China","state":"","region":"Asia Pacific","geo_point":{"address":"Beijing, China","lat":"39.905","lng":"116.39139"}},{"city":"Hong Kong","country":"China","state":"","region":"Asia Pacific","geo_point":{"address":"Hong Kong, China","lat":"22.346578","lng":"114.135442"}},{"city":"Bengaluru","country":"India","state":"","region":"Asia Pacific","geo_point":{"address":"Bengaluru, India","lat":"12.96991","lng":"77.59796"}},{"city":"Chennai","country":"India","state":"","region":"Asia Pacific","geo_point":{"address":"Chennai, India","lat":"13.09","lng":"80.27"}}]},{"name":"SRC Software","id":155,"value_proposition":"Planning, budgeting, and reporting solutions for mid-sized and large businesses.","group":"Former","date_exited":"05/23/2019","industry_vertical":"Financial Services","logo":"http://localhost/wp-content/uploads/2019/05/SRC-Software.svg","date_aquired":"05/14/2002","add_on_companies":false,"hq_location":{"city":"Portland","country":"United States","state":"OR","region":"North America","geo_point":{"address":"Portland, OR, United States of America","lat":"45.5202","lng":"-122.6742"}},"other_locations":[]},{"name":"SER Solutions","id":154,"value_proposition":"Outbound center management software solutions to support business activities such as planned and proactive customer care, telemarketing, collections, fundraising, emergency notifications, and political calling.","group":"Former","date_exited":"05/23/2019","industry_vertical":"Telecom","logo":"http://localhost/wp-content/uploads/2019/05/SER-Solutions.svg","date_aquired":"06/10/2003","add_on_companies":[{"name":"Synergy","acquisition_date":"12/21/2004"}],"hq_location":{"city":"Dulles","country":"United States","state":"VA","region":"North America","geo_point":{"address":"Dulles, VA, United States of America","lat":"38.98861","lng":"-77.450815"}},"other_locations":[]},{"name":"Return Path","id":153,"value_proposition":"Email optimization and email security solutions for enterprises, particularly those that rely on digital marketing to drive sales.","group":"Current","date_exited":"05/23/2019","industry_vertical":"Horizontal","logo":"http://localhost/wp-content/uploads/2019/05/Return-Path.svg","date_aquired":"11/25/2014","add_on_companies":false,"hq_location":{"city":"New York","country":"United States","state":"NY","region":"North America","geo_point":{"address":"New York, NY, United States of America","lat":"40.7648","lng":"-73.9808"}},"other_locations":[{"city":"Broomfield","country":"United States","state":"CO","region":"North America","geo_point":{"address":"Broomfield, CO, United States of America","lat":"39.9204","lng":"-105.0691"}},{"city":"Austin","country":"United States","state":"TX","region":"North America","geo_point":{"address":"Austin, TX, United States of America","lat":"30.2711","lng":"-97.7437"}},{"city":"San Jose","country":"United States","state":"CA","region":"North America","geo_point":{"address":"San Jose, CA, United States of America","lat":"37.2751","lng":"-121.8261"}},{"city":"Indianapolis","country":"United States","state":"IN","region":"North America","geo_point":{"address":"Indianapolis, IN, United States of America","lat":"39.7683","lng":"-86.1584"}}]},{"name":"Relias Learning","id":152,"value_proposition":"Verticalized e-learning solutions through SaaS-based software and related course content.","group":"Former","date_exited":"05/23/2019","industry_vertical":"Healthcare","logo":"http://localhost/wp-content/uploads/2019/05/Relias-Learning.svg","date_aquired":"03/15/2012","add_on_companies":[{"name":"Autism Training Solutions","acquisition_date":"06/12/2014"},{"name":"Hospice Education Network","acquisition_date":"12/18/2013"},{"name":"Care2Learn","acquisition_date":"05/01/2013"},{"name":"Silverchair Learning Systems","acquisition_date":"05/04/2012"}],"hq_location":{"city":"Cary","country":"United States","state":"NC","region":"North America","geo_point":{"address":"Cary, NC, United States of America","lat":"35.7883","lng":"-78.7812"}},"other_locations":[]},{"name":"Regulatory DataCorp","id":151,"value_proposition":"Governance, Risk, and Compliance software and data solutions for financial institutions and technology companies globally.","group":"Current","industry_vertical":"Financial Services","logo":"http://localhost/wp-content/uploads/2019/05/Regulatory-DataCorp.svg","date_aquired":"09/21/2016","add_on_companies":false,"date_exited":"","hq_location":{"city":"King of Prussia","country":"United States","state":"PA","region":"North America","geo_point":{"address":"King of Prussia, PA, United States of America","lat":"40.0893","lng":"-75.396"}},"other_locations":[]},{"name":"Mediaocean","id":140,"value_proposition":"Software to manage the media buying lifecycle from planning and buying, to optimization, reconciliation, and reporting across every media channel.","group":"Current","industry_vertical":"Sales & Marketing","logo":"http://localhost/wp-content/uploads/2019/05/Mediaocean.svg","date_aquired":"08/18/2015","add_on_companies":[{"name":"Shanghai Zanthuu Technology Solutions","acquisition_date":"10/02/2017"},{"name":"VideoAmp","acquisition_date":"04/20/2017"},{"name":"INVISION","acquisition_date":"06/30/2016"},{"name":"ColSpace","acquisition_date":"05/19/2016"},{"name":"BCC AdSystems","acquisition_date":"01/04/2016"},{"name":"METIS","acquisition_date":"12/31/2015"}],"date_exited":"","hq_location":{"city":"New York","country":"United States","state":"NY","region":"North America","geo_point":{"address":"New York, NY, United States of America","lat":"40.7648","lng":"-73.9808"}},"other_locations":[{"city":"Toronto","country":"Canada","state":"","region":"North America","geo_point":{"address":"Toronto, Canada","lat":"43.6529","lng":"-79.3849"}},{"city":"Atlanta","country":"United States","state":"GA","region":"North America","geo_point":{"address":"Atlanta, GA, United States of America","lat":"33.7491","lng":"-84.3902"}},{"city":"Duluth","country":"United States","state":"GA","region":"North America","geo_point":{"address":"Duluth, GA, United States of America","lat":"34.0029","lng":"-84.1441"}},{"city":"Chicago","country":"United States","state":"IL","region":"North America","geo_point":{"address":"Chicago, IL, United States of America","lat":"41.8756","lng":"-87.6244"}},{"city":"Oak Brook","country":"United States","state":"IL","region":"North America","geo_point":{"address":"Oak Brook, IL, United States of America","lat":"41.8371987","lng":"-87.9750416"}},{"city":"Hasbrouck Heights","country":"United States","state":"NJ","region":"North America","geo_point":{"address":"Hasbrouck Heights, NJ, United States of America","lat":"40.8582","lng":"-74.0807"}},{"city":"Louisville","country":"United States","state":"KY","region":"North America","geo_point":{"address":"Louisville, KY, United States of America","lat":"38.2542","lng":"-85.7594"}},{"city":"Manassas","country":"United States","state":"VA","region":"North America","geo_point":{"address":"Manassas, VA, United States of America","lat":"38.7509","lng":"-77.4753"}},{"city":"Los Angeles","country":"United States","state":"CA","region":"North America","geo_point":{"address":"Los Angeles, CA, United States of America","lat":"34.0544","lng":"-118.2439"}},{"city":"Paris","country":"France","state":"","region":"Europe","geo_point":{"address":"Paris, France","lat":"48.859489","lng":"2.320582"}},{"city":"Düsseldorf","country":"Germany","state":"","region":"Europe","geo_point":{"address":"Düsseldorf , Germany","lat":"51.2385861","lng":"6.6742675"}},{"city":"London","country":"United Kingdom","state":"","region":"Europe","geo_point":{"address":"London, United Kingdom","lat":"51.50722","lng":"-0.1275"}},{"city":"Gladesville","country":"Australia","state":"","region":"Asia Pacific","geo_point":{"address":"Gladesville, Australia","lat":"-33.8275","lng":"151.1264"}},{"city":"Melbourne","country":"Australia","state":"","region":"Asia Pacific","geo_point":{"address":"Melbourne, Australia","lat":"-37.8142","lng":"144.9632"}},{"city":"Shanghai","country":"China","state":"","region":"Asia Pacific","geo_point":{"address":"Shanghai, China","lat":"31.16667","lng":"121.46667"}},{"city":"Pune","country":"India","state":"","region":"Asia Pacific","geo_point":{"address":"Pune, India","lat":"18.52361","lng":"73.84778"}}]},{"name":"Lithium Technologies","id":134,"value_proposition":"Social media management and online community software to deliver digital customer experience.","group":"Current","industry_vertical":"Sales & Marketing","logo":"http://localhost/wp-content/uploads/2019/05/Lithium-Technologies.svg","date_aquired":"07/28/2017","add_on_companies":[{"name":"Spredfast","acquisition_date":"10/01/2018"},{"name":"Jive-X","acquisition_date":"10/03/2017"}],"date_exited":"","hq_location":{"city":"San Francisco","country":"United States","state":"CA","region":"North America","geo_point":{"address":"San Francisco, CA, United States of America","lat":"37.7648","lng":"-122.463"}},"other_locations":[{"city":"Austin","country":"United States","state":"TX","region":"North America","geo_point":{"address":"Austin, TX, United States of America","lat":"30.2711","lng":"-97.7437"}},{"city":"Portland","country":"United States","state":"OR","region":"North America","geo_point":{"address":"Portland, OR, United States of America","lat":"45.5202","lng":"-122.6742"}},{"city":"Paris","country":"France","state":"","region":"Europe","geo_point":{"address":"Paris, France","lat":"48.859489","lng":"2.320582"}},{"city":"Zürich","country":"Switzerland","state":"","region":"Europe","geo_point":{"address":"Zürich, Switzerland","lat":"47.37861","lng":"8.54"}},{"city":"London","country":"United Kingdom","state":"","region":"Europe","geo_point":{"address":"London, United Kingdom","lat":"51.50722","lng":"-0.1275"}},{"city":"Sydney","country":"Australia","state":"","region":"Asia Pacific","geo_point":{"address":"Sydney, Australia","lat":"-33.868","lng":"151.21"}},{"city":"Bengaluru","country":"India","state":"","region":"Asia Pacific","geo_point":{"address":"Bengaluru, India","lat":"12.96991","lng":"77.59796"}},{"city":"Singapore","country":"Singapore","state":"","region":"Asia Pacific","geo_point":{"address":"Singapore, Singapore","lat":"1.351616","lng":"103.808053"}}]},{"name":"Finastra","id":124,"value_proposition":"Global financial software solutions including retail banking, transaction banking, lending, and treasury and capital markets capabilities.","group":"Current","industry_vertical":"Financial Services","logo":"http://localhost/wp-content/uploads/2019/05/Finastra.svg","date_aquired":"06/13/2017","add_on_companies":[{"name":"Malauzai Software","acquisition_date":"06/15/2018"},{"name":"Olfa Soft","acquisition_date":"01/29/2018"},{"name":"DH Corporation","acquisition_date":"06/13/2017"},{"name":"Custom Credit Systems","acquisition_date":"08/08/2014"},{"name":"IND Group","acquisition_date":"02/08/2014"},{"name":"Misys","acquisition_date":"06/01/2012"},{"name":"Turaz","acquisition_date":"01/31/2012"}],"date_exited":"","hq_location":{"city":"London","country":"United Kingdom","state":"","region":"Europe","geo_point":{"address":"London, United Kingdom","lat":"51.50722","lng":"-0.1275"}},"other_locations":[{"city":"Burlington","country":"Canada","state":"","region":"North America","geo_point":{"address":"Burlington, Canada","lat":"43.3236","lng":"-79.8012"}},{"city":"Burnaby","country":"Canada","state":"","region":"North America","geo_point":{"address":"Burnaby, Canada","lat":"49.2433","lng":"-122.9726"}},{"city":"Markham","country":"Canada","state":"","region":"North America","geo_point":{"address":"Markham, Canada","lat":"43.8539","lng":"-79.3243"}},{"city":"London","country":"Canada","state":"","region":"North America","geo_point":{"address":"London, Canada","lat":"42.9881","lng":"-81.246"}},{"city":"Mississauga","country":"Canada","state":"","region":"North America","geo_point":{"address":"Mississauga, Canada","lat":"43.5893","lng":"-79.6442"}},{"city":"Montreal","country":"Canada","state":"","region":"North America","geo_point":{"address":"Montreal, Canada","lat":"45.5088","lng":"-73.554"}},{"city":"Pickering","country":"Canada","state":"","region":"North America","geo_point":{"address":"Pickering, Canada","lat":"43.8357","lng":"-79.0905"}},{"city":"Toronto","country":"Canada","state":"","region":"North America","geo_point":{"address":"Toronto, Canada","lat":"43.6529","lng":"-79.3849"}},{"city":"Mexico City","country":"Mexico","state":"","region":"North America","geo_point":{"address":"Mexico City, Mexico","lat":"19.41944","lng":"-99.14556"}},{"city":"San Francisco","country":"United States","state":"CA","region":"North America","geo_point":{"address":"San Francisco, CA, United States of America","lat":"37.7648","lng":"-122.463"}},{"city":"Englewood","country":"United States","state":"CO","region":"North America","geo_point":{"address":"Englewood, CO, United States of America","lat":"39.6482","lng":"-104.988"}},{"city":"Lake Mary","country":"United States","state":"FL","region":"North America","geo_point":{"address":"Lake Mary, FL, United States of America","lat":"28.7563","lng":"-81.3221"}},{"city":"Norcross","country":"United States","state":"GA","region":"North America","geo_point":{"address":"Norcross, GA, United States of America","lat":"33.9412","lng":"-84.2135"}},{"city":"Clive","country":"United States","state":"IA","region":"North America","geo_point":{"address":"Clive, IA, United States of America","lat":"41.6096","lng":"-93.7754"}},{"city":"Atlanta","country":"United States","state":"GA","region":"North America","geo_point":{"address":"Atlanta, GA, United States of America","lat":"33.7491","lng":"-84.3902"}},{"city":"New York","country":"United States","state":"NY","region":"North America","geo_point":{"address":"New York, NY, United States of America","lat":"40.7648","lng":"-73.9808"}},{"city":"White Plains","country":"United States","state":"NY","region":"North America","geo_point":{"address":"White Plains, NY, United States of America","lat":"41.034","lng":"-73.7629"}},{"city":"Fargo","country":"United States","state":"ND","region":"North America","geo_point":{"address":"Fargo, ND, United States of America","lat":"46.8772","lng":"-96.7898"}},{"city":"Portland","country":"United States","state":"OR","region":"North America","geo_point":{"address":"Portland, OR, United States of America","lat":"45.5202","lng":"-122.6742"}},{"city":"Dayton","country":"United States","state":"OH","region":"North America","geo_point":{"address":"Dayton, OH, United States of America","lat":"39.6428","lng":"-84.2866"}},{"city":"Salt Lake City","country":"United States","state":"UT","region":"North America","geo_point":{"address":"Salt Lake City, UT, United States of America","lat":"40.767","lng":"-111.8904"}},{"city":"Plano","country":"United States","state":"TX","region":"North America","geo_point":{"address":"Plano, TX, United States of America","lat":"33.0137","lng":"-96.6925"}},{"city":"Burlington","country":"United States","state":"VT","region":"North America","geo_point":{"address":"Burlington, VT, United States of America","lat":"44.4724","lng":"-73.2115"}},{"city":"Mequon","country":"United States","state":"WI","region":"North America","geo_point":{"address":"Mequon, WI, United States of America","lat":"43.2219","lng":"-87.9823"}},{"city":"Vienna","country":"Austria","state":"","region":"Europe","geo_point":{"address":"Vienna, Austria","lat":"48.220954","lng":"16.372029"}},{"city":"Brussels","country":"Belgium","state":"","region":"Europe","geo_point":{"address":"Brussels, Belgium","lat":"50.8467","lng":"4.3547"}},{"city":"Prague","country":"Czechia","state":"","region":"Europe","geo_point":{"address":"Prague, Czechia","lat":"50.08861","lng":"14.42139"}},{"city":"Paris","country":"France","state":"","region":"Europe","geo_point":{"address":"Paris, France","lat":"48.859489","lng":"2.320582"}},{"city":"Frankfurt","country":"Germany","state":"","region":"Europe","geo_point":{"address":"Frankfurt, Germany","lat":"50.11361","lng":"8.67972"}},{"city":"Athens","country":"Greece","state":"","region":"Europe","geo_point":{"address":"Athens, Greece","lat":"38","lng":"23.71667"}},{"city":"Budapest","country":"Hungary","state":"","region":"Europe","geo_point":{"address":"Budapest, Hungary","lat":"47.49833","lng":"19.04083"}},{"city":"Miskolc","country":"Hungary","state":"","region":"Europe","geo_point":{"address":"Miskolc, Hungary","lat":"48.10556","lng":"20.78333"}},{"city":"Dublin","country":"Ireland","state":"","region":"Europe","geo_point":{"address":"Dublin, Ireland","lat":"53.34929607","lng":"-6.26036167"}},{"city":"Milan","country":"Italy","state":"","region":"Europe","geo_point":{"address":"Milan, Italy","lat":"45.46416","lng":"9.19034"}},{"city":"Rome","country":"Italy","state":"","region":"Europe","geo_point":{"address":"Rome, Italy","lat":"41.89306","lng":"12.48278"}},{"city":"Luxembourg","country":"Luxembourg","state":"","region":"Europe","geo_point":{"address":"Luxembourg, Luxembourg","lat":"49.61056","lng":"6.13278"}},{"city":"Amsterdam","country":"Netherlands","state":"","region":"Europe","geo_point":{"address":"Amsterdam, Netherlands","lat":"52.378","lng":"4.9"}},{"city":"Gdynia","country":"Poland","state":"","region":"Europe","geo_point":{"address":"Gdynia, Poland","lat":"54.5","lng":"18.53333"}},{"city":"Krakow","country":"Poland","state":"","region":"Europe","geo_point":{"address":"Krakow, Poland","lat":"50.06667","lng":"19.95"}},{"city":"Warsaw","country":"Poland","state":"","region":"Europe","geo_point":{"address":"Warsaw, Poland","lat":"52.21667","lng":"21.03333"}},{"city":"Lisbon","country":"Portugal","state":"","region":"Europe","geo_point":{"address":"Lisbon, Portugal","lat":"38.71667","lng":"-9.16667"}},{"city":"Bucharest","country":"Romania","state":"","region":"Europe","geo_point":{"address":"Bucharest, Romania","lat":"44.4","lng":"26.08333"}},{"city":"Moscow","country":"Russia","state":"","region":"Europe","geo_point":{"address":"Moscow, Russia","lat":"55.75583","lng":"37.61778"}},{"city":"Madrid","country":"Spain","state":"","region":"Europe","geo_point":{"address":"Madrid, Spain","lat":"40.41889","lng":"-3.69194"}},{"city":"Stockholm","country":"Sweden","state":"","region":"Europe","geo_point":{"address":"Stockholm, Sweden","lat":"59.32944","lng":"18.06861"}},{"city":"Baden","country":"Switzerland","state":"","region":"Europe","geo_point":{"address":"Baden, Switzerland","lat":"47.47333","lng":"8.30417"}},{"city":"Geneva","country":"Switzerland","state":"","region":"Europe","geo_point":{"address":"Geneva, Switzerland","lat":"46.22234","lng":"6.14706"}},{"city":"Zürich","country":"Switzerland","state":"","region":"Europe","geo_point":{"address":"Zürich, Switzerland","lat":"47.37861","lng":"8.54"}},{"city":"Bangor","country":"United Kingdom","state":"","region":"Europe","geo_point":{"address":"Bangor, United Kingdom","lat":"54.66","lng":"-5.67"}},{"city":"Nottingham","country":"United Kingdom","state":"","region":"Europe","geo_point":{"address":"Nottingham, United Kingdom","lat":"52.955","lng":"-1.14917"}},{"city":"Nairobi","country":"Kenya","state":"","region":"Africa","geo_point":{"address":"Nairobi, Kenya","lat":"-1.28333","lng":"36.81667"}},{"city":"Casablanca","country":"Morocco","state":"","region":"Africa","geo_point":{"address":"Casablanca, Morocco","lat":"33.59917","lng":"-7.62"}},{"city":"Johannesburg","country":"South Africa","state":"","region":"Africa","geo_point":{"address":"Johannesburg, South Africa","lat":"-26.1633","lng":"28.0328"}},{"city":"Herzliya","country":"Israel","state":"","region":"Middle East","geo_point":{"address":"Herzliya, Israel","lat":"32.1656255584118","lng":"34.8469022847712"}},{"city":"Istanbul","country":"Turkey","state":"","region":"Middle East","geo_point":{"address":"Istanbul, Turkey","lat":"41.008098","lng":"28.97839"}},{"city":"Dubai","country":"United Arab Emirates","state":"","region":"Middle East","geo_point":{"address":"Dubai, United Arab Emirates","lat":"25.2684","lng":"55.2962"}},{"city":"Sydney","country":"Australia","state":"","region":"Asia Pacific","geo_point":{"address":"Sydney, Australia","lat":"-33.868","lng":"151.21"}},{"city":"Beijing","country":"China","state":"","region":"Asia Pacific","geo_point":{"address":"Beijing, China","lat":"39.905","lng":"116.39139"}},{"city":"Hong Kong","country":"China","state":"","region":"Asia Pacific","geo_point":{"address":"Hong Kong, China","lat":"22.346578","lng":"114.135442"}},{"city":"Shanghai","country":"China","state":"","region":"Asia Pacific","geo_point":{"address":"Shanghai, China","lat":"31.16667","lng":"121.46667"}},{"city":"Bengaluru","country":"India","state":"","region":"Asia Pacific","geo_point":{"address":"Bengaluru, India","lat":"12.96991","lng":"77.59796"}},{"city":"Mumbai","country":"India","state":"","region":"Asia Pacific","geo_point":{"address":"Mumbai, India","lat":"18.96667","lng":"72.83333"}},{"city":"Pune","country":"India","state":"","region":"Asia Pacific","geo_point":{"address":"Pune, India","lat":"18.52361","lng":"73.84778"}},{"city":"Trivandrum","country":"India","state":"","region":"Asia Pacific","geo_point":{"address":"Trivandrum, India","lat":"8.418699","lng":"76.990228"}},{"city":"Jakarta","country":"Indonesia","state":"","region":"Asia Pacific","geo_point":{"address":"Jakarta, Indonesia","lat":"-6.173292","lng":"106.841036"}},{"city":"Tokyo","country":"Japan","state":"","region":"Asia Pacific","geo_point":{"address":"Tokyo, Japan","lat":"35.68","lng":"139.77"}},{"city":"Kuala Lumpur","country":"Malaysia","state":"","region":"Asia Pacific","geo_point":{"address":"Kuala Lumpur, Malaysia","lat":"3.130236","lng":"101.687618"}},{"city":"Manila","country":"Philippines","state":"","region":"Asia Pacific","geo_point":{"address":"Manila, Philippines","lat":"14.5946","lng":"120.99501"}},{"city":"Singapore","country":"Singapore","state":"","region":"Asia Pacific","geo_point":{"address":"Singapore, Singapore","lat":"1.351616","lng":"103.808053"}},{"city":"Seoul","country":"South Korea","state":"","region":"Asia Pacific","geo_point":{"address":"Seoul, South Korea","lat":"37.564771","lng":"126.939358"}},{"city":"Taipei","country":"Taiwan","state":"","region":"Asia Pacific","geo_point":{"address":"Taipei, Taiwan","lat":"25.093197","lng":"121.558442"}},{"city":"Bangkok","country":"Thailand","state":"","region":"Asia Pacific","geo_point":{"address":"Bangkok, Thailand","lat":"13.75","lng":"100.51667"}},{"city":"Hanoi","country":"Vietnam","state":"","region":"Asia Pacific","geo_point":{"address":"Hanoi, Vietnam","lat":"20.96841","lng":"105.717798"}}]},{"name":"Aderant","id":103,"value_proposition":"Business management application for law firms and professional services organizations to efficiently manage operations, attract and retain clients, and maximize profitability.","group":"Former","date_exited":"05/14/2019","industry_vertical":"Legal","logo":"http://localhost/wp-content/uploads/2019/05/Aderant.svg","date_aquired":"10/31/2008","add_on_companies":[{"name":"Redwood Analytics","acquisition_date":"05/14/2014"},{"name":"Omega Legal Systems","acquisition_date":"04/18/2012"},{"name":"ATG","acquisition_date":"03/12/2012"},{"name":"Rainmaker","acquisition_date":"10/06/2011"},{"name":"ClientProfiles","acquisition_date":"08/21/2011"},{"name":"CompuLaw","acquisition_date":"08/18/2011"},{"name":"Starlaw","acquisition_date":"08/19/2009"}],"hq_location":{"city":"Atlanta","country":"United States","state":"GA","region":"North America","geo_point":{"address":"Atlanta, GA, United States of America","lat":"33.7491","lng":"-84.3902"}},"other_locations":[]}]